,Date,City,State,Latitude,Longitude
0,2009-01-27,Wilmington,CA,33.7832634,-118.2549338
1,2009-02-14,Brockport,NY,43.221,-77.943
2,2009-03-05,Cleveland,OH,41.4774642,-81.6865138
3,2009-03-10,Coffee and Geneva County,AL,31.1129,-86.0459
4,2009-03-15,Miami,FL,25.7377809,-80.2595799
5,2009-03-21,East Oakland,CA,37.7776884,-122.1902171
6,2009-03-29,Santa Clara,CA,37.39797,-121.9682421
7,2009-03-29,Carthage,NC,35.3333426,-79.4146051
8,2009-04-03,Binghamton,NY,42.0997,-75.9172
9,2009-04-04,Graham,WA,47.0709264,-122.2534173
10,2009-04-06,Green Hill,AL,34.973,-87.5121
11,2009-04-19,Middletown,MD,39.4428,-77.5455
12,2009-06-22,Kansas City,KS,39.1127,-95.0286075
13,2009-08-27,Lawrenceville,GA,33.955,-83.9882
14,2009-11-01,Mount Airy,NC,36.4893683,-80.6121907
15,2009-11-05,Fort Hood,TX,31.1950059,-97.743503
16,2009-11-09,Oklahoma City,OK,35.4684,-97.5212
17,2009-11-12,Pearcy,AR,34.4286,-93.2897
18,2009-11-26,Jupiter,FL,26.9188313,-80.1121129
19,2009-11-28,Osage,KS,38.7504862,-95.8525965
20,2009-11-29,Lakewood,WA,47.1528883,-122.4694522
21,2009-12-03,Madison,WI,43.1081714,-89.5540708
22,2010-01-16,Bellville,TX,30.0388274,-96.1958491
23,2010-01-19,Appomattox,VA,37.3552,-78.8229
24,2010-03-26,New Orleans,LA,29.9506,-90.0749
25,2010-03-30,Washington,DC,38.82298,-77.0094644
26,2010-04-03,Los Angeles,CA,34.1578673,-118.38943
27,2010-04-14,Chicago,IL,41.7612879,-87.6966486
28,2010-06-06,Hialeah,FL,25.8675643,-80.2728595
29,2010-08-03,Manchester,CT,41.7706,-72.5208
30,2010-08-06,Lanham,MD,38.9648,-76.8402
31,2010-08-14,Buffalo,NY,42.8876,-78.8793
32,2010-08-29,Lake Havasu,AZ,34.4961,-114.3489
33,2010-09-02,Chicago,IL,41.8832,-87.6323
34,2010-09-10,Jackson,KY,37.5576,-83.3815
35,2010-09-27,Riviera Beach,FL,26.7834,-80.0548
36,2010-09-28,Boston,MA,42.3588,-71.0567
37,2011-01-08,Tucson,AZ,32.3367887,-110.9795511
38,2011-01-28,Minot,ND,48.2355,-101.296
39,2011-02-11,Willowbrook,CA,33.9143,-118.2307
40,2011-04-16,Oak Harbor,OH,41.5076,-83.145
41,2011-05-11,Ammon,ID,43.4787,-111.9642
42,2011-06-02,Yuma,AZ,32.7223,-114.6208
43,2011-06-19,Medford,NY,40.8176,-72.9998
44,2011-06-23,Grand Prairie,TX,32.7454,-97.0035
45,2011-07-03,Wagener,SC,33.6525,-81.3614
46,2011-07-07,Wheatland,WY,42.0543,-104.9532
47,2011-07-07,Grand Rapids,MI,42.9654,-85.6702
48,2011-08-05,Marion County,FL,29.0083,-82.1832
49,2011-08-07,Copley Township,OH,40.4155,-81.6066209
50,2011-08-27,Chesterfield,VA,37.3745,-77.5078
51,2011-09-06,Monongalia County,WV,39.4623,-80.2185
52,2011-09-06,Carson City,NV,39.1645,-119.7669
53,2011-09-25,Laurel,IN,39.5006,-85.1681
54,2011-10-12,Seal Beach,CA,33.7414,-118.1047
55,2011-10-14,Liberty,SC,34.7873,-82.6963
56,2011-11-20,Greensboro,NC,35.9932712,-79.7938
57,2011-11-30,Bay City,TX,28.9818,-95.97
58,2011-12-15,Gargatha,VA,37.802,-75.5984
59,2011-12-16,Emington,IL,40.9695,-88.3574
60,2011-12-25,Grapevine,TX,32.9398,-97.0387
61,2012-01-17,Villa Park,IL,41.8898,-87.9776
62,2012-01-29,Birmingham,AL,33.5228,-86.8077
63,2012-02-20,Norcross,GA,33.9418,-84.2121
64,2012-04-02,Oakland,CA,37.8048,-122.2724
65,2012-05-02,Gilbert,AZ,33.3307,-111.7903
66,2012-05-15,Port St. John,FL,28.4762,-80.7885
67,2012-05-19,Leivasy,WV,38.161,-80.6911
68,2012-05-20,Seattle,WA,47.6032,-122.3302
69,2012-06-02,Tempe,AZ,33.4255,-111.9412
70,2012-07-06,Newton Falls,OH,41.1863,-80.9705
71,2012-07-20,Aurora,CO,39.7112,-104.8193
72,2012-08-05,Oak Creek,WI,42.8851,-87.9083
73,2012-09-27,Minneapolis,MN,44.9774,-93.2643
74,2012-11-18,New Town,ND,47.9795,-102.4932
75,2012-12-02,Northridge,CA,34.2282,-118.5357
76,2012-12-04,Detroit,MI,42.4417462,-82.9709965
77,2012-12-08,Tule River Reservation,CA,36.0383396,-118.8632294
78,2012-12-14,Newtown,CT,41.4135,-73.3088
79,2013-01-07,Tulsa,OK,36.2405,-95.9768
80,2013-01-19,Albuquerque,NM,34.9791,-106.716
81,2013-03-13,Herkimer,NY,43.011,-75.0058
82,2013-04-18,Akron,OH,41.1102,-81.4771
83,2013-04-21,Federal Way,WA,47.303,-122.31
84,2013-04-24,Manchester,IL,39.5417,-90.3301
85,2013-04-28,Ottawa,KS,38.6084,-95.2686
86,2013-05-11,Waynesville,IN,39.1149,-85.8929
87,2013-05-13,Fernley,NV,39.608,-119.251
88,2013-06-07,Santa Monica,CA,34.026,-118.461
89,2013-07-26,Hialeah,FL,25.864,-80.3122
90,2013-07-26,Clarksburg,WV,39.2832,-80.3488
91,2013-08-07,Dallas,TX,32.6412,-96.9481
92,2013-08-14,Oklahoma City,OK,35.3867,-97.4356
93,2013-09-11,Crab Orchard,TN,35.9576,-84.8407
94,2013-09-16,Washington,DC,38.873,-76.9977
95,2013-09-22,Rice,TX,32.2337,-96.4661
96,2013-10-09,Paris,TX,33.6652,-95.5505
97,2013-10-26,Phoenix,AZ,33.5042,-112.096
98,2013-10-28,Terrell,TX,32.7863,-96.2806
99,2013-10-29,Callison,SC,33.9881,-82.2888
100,2013-11-07,Jacksonville,FL,30.3068,-81.7298
101,2013-11-23,Tulsa,OK,36.1771,-95.9403
102,2013-12-01,Topeka,KS,39.0379,-95.6905
103,2014-01-16,Spanish Fork,UT,40.1109,-111.665
104,2014-02-03,Cypress,TX,29.973,-95.6542
105,2014-02-20,Indianapolis,IN,39.717,-86.1136
106,2014-02-20,Alturas,CA,41.4909,-120.5425
107,2014-06-08,Fort Myers,FL,26.4815,-81.8213
108,2014-07-09,Spring,TX,30.0405,-95.4424
109,2014-07-26,Saco,ME,43.4981,-70.449
110,2014-08-04,Culpeper,VA,38.5631,-77.9829
111,2014-09-18,Bell,FL,29.7555,-82.8626
112,2014-10-24,Marysville,WA,48.092,-122.155
113,2014-11-15,Springfield,MO,37.2432,-93.2613
114,2014-11-21,Cleveland,OH,41.518,-81.6234
115,2014-12-01,Morgantown,WV,39.6855,-80.0378807
116,2014-12-15,Souderton,PA,40.2459,-75.282
117,2014-12-20,Rockford,IL,42.2938,-89.1072
118,2015-01-09,San Francisco,CA,37.7737,-122.426
119,2015-01-31,LaGrange,GA,32.9776,-85.142
120,2015-02-07,Douglasville,GA,33.7138,-84.6692
121,2015-02-26,Tyrone,MO,37.1956,-91.9012
122,2015-03-24,Indianapolis,IN,39.811,-86.1871
123,2015-04-17,Phoenix,AZ,33.6417,-111.989
124,2015-05-12,Tucson,AZ,32.1299,-111.066
125,2015-05-17,Waco,TX,31.5039,-97.129
126,2015-06-07,Missoula,MT,46.3991,-114.1582495
127,2015-06-13,Columbus,OH,40.0134,-82.9664
128,2015-06-17,Charleston,SC,32.7876,-79.9332
129,2015-07-15,Holly Hill,SC,33.3467,-80.45
130,2015-07-16,Chattanooga,TN,35.0905,-85.2591
131,2015-08-07,Barre,VT,44.1984,-72.5351
132,2015-08-08,Harris County,TX,29.9199,-95.452
133,2015-09-10,Greenwood,MN,44.9081938,-93.5479981
134,2015-09-17,Platte,SD,43.3153,-98.6045
135,2015-10-01,Roseberg,OR,43.2628,-123.28
136,2015-11-01,Pendleton,SC,34.6474,-82.748
137,2015-11-14,Palestine,TX,31.7617,-95.6314
138,2015-12-02,San Bernardino,CA,34.0758,-117.277
139,2016-01-27,Chesapeake,VA,36.7921,-76.3293
140,2016-02-20,Kalamazoo ,MI,42.2354,-85.676
141,2016-02-23,Phoenix,AZ,33.5927,-112.163
142,2016-02-26,Belfair,WA,47.5033,-122.931
143,2016-03-07,Kansas City,KS,39.0476,-94.6699
144,2016-03-09,Wilkinsburg,PA,40.4385,-79.8722
145,2016-04-22,Appling,GA,33.5989,-82.2244
146,2016-04-22,Pike County,OH,39.0201,-83.275
147,2016-06-12,Orlando,FL,28.5195,-81.3767
148,2016-06-12,Roswell,NM,33.3931,-104.5227
149,2016-06-29,Las Vegas,NV,36.1958,-115.224
150,2016-07-07,Dallas,TX,32.7793,-96.8052
151,2016-08-06,Sinking Spring,PA,40.33,-76.0256
152,2016-09-23,Burlington,WA,48.4646,-122.338
153,2016-10-15,Los Angeles,CA,34.0274,-118.351
154,2016-10-27,Henry County,GA,33.384,-83.99
155,2016-12-17,Chicago,IL,41.7037,-87.6259
156,2016-12-24,Wilson County ,NC,35.731,-77.922
157,2017-01-06,Ft. Lauderdale,FL,26.0698,-80.1367
158,2017-01-27,Bremerton,WA,47.5625,-122.828
159,2017-02-06,Yazoo City,MS,32.8634,-90.4092
160,2017-03-22,Rothschild,WI,44.8975,-89.6129
161,2017-03-30,Chicago,IL,41.7601,-87.5583
162,2017-04-07,Houston,TX,29.6858,-95.3668
163,2017-05-27,Bogue Chitto,MS,31.4109,-90.4609
164,2017-06-05,Orlando,FL,28.5799,-81.2934
165,2017-06-15,La Madera,NM,36.384,-106.041
166,2017-08-21,Enfield,NC,36.1688,-77.8286
167,2017-08-24,St. Louis,MO,38.754324,-90.20117
168,2017-09-10,Plano,TX,33.056,-96.7261
169,2017-09-15,Chicago,IL,41.878,-87.629
170,2017-10-01,Las Vegas,NV,36.169,-115.139
171,2017-10-11,Pedro,OH,38.7083,-82.6423
172,2017-11-05,Sutherland Springs,TX,29.2733,-98.0564
173,2017-11-14,Rancho Tehama Reserve,CA,40.0187,-122.393
174,2017-12-31,Long Branch,NJ,40.2927,-74.0028
175,2018-01-28,Melcroft,PA,40.0521,-79.3889
176,2018-01-28,Reading,PA,40.3331,-75.9318
177,2018-02-10,Paintsville,KY,37.8982,-82.886
178,2018-02-14,Parkland,FL,26.3045,-80.2694
179,2018-02-26,Detroit,MI,42.4005,-83.2571
180,2018-04-22,Antioch,TN,36.06,-86.6722
181,2018-05-16,Ponder,TX,33.1796,-97.2877
182,2018-05-18,Santa Fe,TX,29.3727,-95.0895
183,2018-06-11,Orlando,FL,28.4883912,-81.4642026
184,2018-06-28,Annapolis,MD,38.978,-76.495
185,2018-07-09,Wilmington,DE,39.744,-75.545
186,2018-07-27,Robstown,TX,27.798,-97.695
187,2018-09-12,Bakersfield,CA,35.373,-119.081
188,2018-10-13,Taft,TX,27.979,-97.39
189,2018-10-15,Columbia,TN,35.616,-87.048
190,2018-10-27,Pittsburgh,PA,40.443,-79.92
191,2018-11-07,Thousand Oaks,CA,34.176,-118.848
192,2018-11-19,Philadelphia,PA,39.951,-75.165
193,2018-12-28,St. Charles,MO,38.781,-90.486
194,2019-01-23,Sebring,FL,27.47037,-81.45848
195,2019-01-24,Rockmart,GA,33.9982,-85.05973
196,2019-01-26,"Gonzales, Walker",LA,30.2405,-90.8929
197,2019-02-03,Palm Springs,CA,33.8123,-116.506
198,2019-02-11,Blanchard,TX,30.725,-95.0563
199,2019-02-15,Aurora,IL,41.7564,-88.3327
200,2019-02-16,Clinton,MS,32.3525,-90.3194
201,2019-04-28,West Chester,OH,39.3512,-84.4651
202,2019-05-13,St. Louis,MO,38.6774,-90.2434
203,2019-05-31,Virginia Beach,VA,36.751,-76.0574
204,2019-06-08,White Swan,WA,46.4225,-120.824
205,2019-06-23,San Jose,CA,37.3012,-121.842
206,2019-07-06,St. Louis County,MO,38.7494,-90.2641
207,2019-07-25,"Canoga Park, Lake Balboa",CA,34.2201,-118.605
208,2019-07-28,Chippewa Falls,WI,44.9205,-91.3278
209,2019-08-03,El Paso,TX,31.7767,-106.385
210,2019-08-04,Dayton,OH,39.7574,-84.1844
211,2019-08-31,"Odessa, Midland",TX,31.9246,-102.285
212,2019-09-02,Elkmont,AL,34.9208,-86.9683
213,2019-09-12,Albuquerque,NM,35.064,-106.684
214,2019-09-29,Beaumont,TX,30.0473,-94.0855
215,2019-10-06,Kansas City,KS,39.1008,-94.6361
216,2019-10-07,Abington,MA,42.1067,-70.9385
217,2019-10-12,Chicago,IL,41.9525,-87.7951
218,2019-10-29,Philadelphia,PA,39.949,-75.2232
219,2019-10-31,Orinda,CA,37.8734,-122.183
220,2019-11-16,San Diego,CA,32.6779,-117.069
221,2019-11-17,Fresno,CA,36.762128,-119.717642
222,2019-12-10,Jersey City,NJ,40.707094,-74.083647
223,2020-01-17,Grantsville,UT,40.598013,-112.430782
224,2020-01-22,Vanceboro,NC,35.233589,-77.110482
225,2020-02-05,Indianapolis,IN,39.832988,-85.98769
226,2020-02-26,Milwaukee,WI,43.041156,-87.96392
227,2020-03-15,Moncure,NC,35.588419,-79.016475
228,2020-03-15,Springfield,MO,37.210283,-93.236766
229,2020-04-27,Milwaukee,WI,43.069513,-87.926724
230,2020-06-04,Valhermoso Springs,AL,34.522953,-86.676802
231,2020-06-12,Monroe,LA,32.505061,-92.151191
232,2020-07-04,Chicago,IL,41.783248,-87.650934
233,2020-07-07,Paterson,NJ,40.922792,-74.161575
234,2020-07-28,Elyria,OH,41.383818,-82.113682
235,2020-08-15,Sumpter Township,MI,42.127486,-83.461496
236,2020-09-07,Aguanga,CA,33.45,-116.85
237,2020-11-30,Wasilla,AK,61.541841,-149.632264
238,2020-12-13,Elkview,WV,38.43322,-81.484873
239,2020-12-25,Pope County,AR,35.197722,-93.002379
240,2021-01-09,Chicago,IL,41.802468,-87.585338
241,2021-01-24,Indianapolis,IN,39.82001,-86.108381
242,2021-02-02,Muskogee,OK,35.732394,-95.347809
243,2021-03-13,Indianapolis,IN,39.771623,-86.128384
244,2021-03-16,Cherokee County,GA,34.087997,-84.58111
245,2021-03-22,Boulder,CO,39.983521,-105.251671
246,2021-03-28,Essex,MD,39.305539,-76.441666
247,2021-03-31,Orange,CA,33.835385,-117.853663
248,2021-04-03,Allen,TX,33.09117,-96.631826
249,2021-04-07,Rock Hill,SC,34.850529,-81.035471
250,2021-04-15,Indianapolis,IN,39.680934,-86.321823
251,2021-04-28,Boone,NC,36.211109,-81.604794
252,2021-05-09,Colorado Springs,CO,38.792844,-104.7322899
253,2021-05-24,West Jefferson,OH,39.946642,-83.272449
254,2021-05-26,San Jose,CA,37.353483,-121.909643
255,2021-06-15,Chicago,IL,41.780857,-87.649626
256,2021-07-20,New Summerfield,TX,32.649956,-95.708281
257,2021-07-26,Wasco,CA,35.600634,-119.344763
258,2021-09-05,Houston,TX,29.683525,-95.51869
259,2021-09-05,Lakeland,FL,28.127864,-81.951955
260,2021-09-12,St. Paul,MN,45.161677,-91.972676
261,2021-09-25,McMinn County,TN,35.421342,-84.640534
262,2021-10-21,Tacoma,WA,47.218659,-122.399343
263,2021-10-22,Clare County,MI,43.857558,-84.828136
264,2021-11-28,Lancaster ,CA,34.686744,-118.074105
265,2021-11-30,Oxford,MI,42.838145,-83.261238
266,2021-12-27,Denver,CO,39.718375,-104.987513
267,2022-01-23,Inglewood,CA,33.979402,-118.345428
268,2022-01-23,Milwaukee,WI,43.064167,-87.938947
269,2022-02-05,Corsicana,TX,32.083349,-96.495879
270,2022-02-28,Sacramento,CA,38.600519,-121.4192266
271,2022-04-20,Duluth,MN,46.802234,-92.101901
272,2022-04-27,Biloxi,MS,30.390223,-88.996254
273,2022-05-14,Buffalo,NY,42.909794,-78.853148
274,2022-05-24,Uvalde,TX,29.200084451099947,-99.78701887495008
275,2022-05-27,Austin Township,MI,43.600099,-85.379905
276,2022-06-01,Tulsa,OK,36.070905,-95.920392
277,2022-06-07,Portsmouth,VA,36.827274,-76.311038
278,2022-07-04,Highland Park,IL,42.18588,-87.798657
279,2022-08-05,Butler Township,OH,39.850517,-84.216189
280,2022-09-09,Elk Mills,MD,36.661673,-75.83624
281,2022-09-29,McGregor,TX,31.443668,-97.409259
282,2022-10-05,Inman,SC,35.047452,-82.092965
283,2022-10-14,Raleigh,NC,35.809129,-78.547613
284,2022-11-12,Orlando,Florida,28.5333463,-81.3999933
285,2022-11-12,Minneapolis,Minnesota,45.0410232,-93.2861215
286,2022-11-12,Dothan,Alabama,31.2257594,-85.4024521
287,2022-11-12,Madison,Tennessee,36.248822,-86.7197907
288,2022-11-12,Lexington,Kentucky,38.0039816,-84.4331474
289,2022-11-12,Rahway,New Jersey,40.5980299,-74.2634768
290,2022-11-12,Hackensack,New Jersey,40.8805157,-74.0535682
291,2022-11-12,Aurora,Colorado,39.700914,-104.822098
292,2022-11-12,Phoenix,Arizona,33.611708,-111.9865842
293,2022-11-12,Kutztown,Pennsylvania,40.5061269,-75.7756913
294,2022-11-12,Baltimore,Maryland,39.3487672,-76.6739419
295,2022-11-12,Foley,Alabama,30.4242573,-87.6874505
296,2022-11-12,Hammond,Louisiana,30.4821736,-90.5117365
297,2022-11-12,Arcadia,Florida,27.1364662,-81.8823081
298,2022-11-12,Dumfries,Virginia,38.563611,-77.323181
299,2022-11-12,Spring Hill,Florida,28.4596113,-82.5127912
300,2022-11-12,Philadelphia,Pennsylvania,40.0116055,-75.1807162
301,2022-11-12,Richmond,Indiana,39.8396421,-84.8868281
302,2022-11-12,San Antonio,Texas,29.4068931,-98.5182136
303,2022-11-12,Rochester,New York,43.1868219,-77.5995674
304,2022-11-11,Houston,Texas,29.7828948,-95.38203
305,2022-11-11,Fort Worth,Texas,32.738481,-97.2604392
306,2022-11-11,Milwaukee,Wisconsin,43.0731979,-87.9291758
307,2022-11-11,Fremont,Michigan,43.4093547,-85.9651513
308,2022-11-11,Kalamazoo,Michigan,42.2816512,-85.6217242
309,2022-11-11,Milwaukee,Wisconsin,43.0748869,-87.9249613
310,2022-11-11,Lynchburg,Virginia,37.3398097,-79.2248048
311,2022-11-11,Carrollton,Mississippi,33.6183175,-90.011835
312,2022-11-11,Richmond,Virginia,37.5896175,-77.4467424
313,2022-11-11,Louisville,Kentucky,38.1399346,-85.7850831
314,2022-11-11,Aurora,Colorado,39.7298979,-104.8286352
315,2022-11-11,San Antonio,Texas,29.4360298,-98.6606091
316,2022-11-11,Brunswick,Ohio,,
317,2022-11-11,Salt Lake City (Millcreek),Utah,40.6832479,-111.8875533
318,2022-11-11,Orange,Texas,30.0655622,-93.7398446
319,2022-11-11,Topeka,Kansas,39.014559,-95.767584
320,2022-11-11,Phoenix,Arizona,33.534934,-112.1169213
321,2022-11-11,Los Angeles,California,33.9767796,-118.3069706
322,2022-11-11,Anchorage,Alaska,61.1860485,-149.9002734
323,2022-11-11,Dallas,Texas,32.7341843,-96.67861
324,2022-11-11,Gonzales,Louisiana,30.2190572,-90.9202027
325,2022-11-11,Atlanta,Georgia,33.7712694,-84.4178702
326,2022-11-11,Hyattsville,Maryland,38.9604258,-76.9825102
327,2022-11-11,Seffner,Florida,27.9822455,-82.3024194
328,2022-11-11,Chicago,Illinois,41.7638036,-87.5608745
329,2022-11-11,Sanford,Florida,28.8043607,-81.2765201
330,2022-11-11,Modesto,California,37.6657691,-120.9762739
331,2022-11-11,Citrus Heights,California,38.7065766,-121.2764171
332,2022-11-11,Jacksonville,Florida,30.2889365,-81.6173806
333,2022-11-11,South Bend,Indiana,41.6893201,-86.2699546
334,2022-11-11,Jacksonville,Florida,30.3692592,-81.6408384
335,2022-11-11,Tell City,Indiana,37.9583181,-86.769772
336,2022-11-11,Greensboro,North Carolina,36.0570206,-79.7837301
337,2022-11-11,Augusta,Georgia,33.4433526,-82.02064
338,2022-11-11,North Little Rock,Arkansas,34.7910872,-92.2293612
339,2022-11-10,Memphis,Tennessee,35.0737411,-89.8697331
340,2022-11-10,Hyattsville (Landover),Maryland,38.9188446,-76.8831253
341,2022-11-10,Arlington,Texas,32.638504,-97.1048799
342,2022-11-10,Detroit,Michigan,42.4408085,-83.185394
343,2022-11-10,Detroit,Michigan,42.4077049,-83.1696568
344,2022-11-10,Albuquerque,New Mexico,35.0891054,-106.6513711
345,2022-11-10,Fayetteville,North Carolina,35.0160431,-78.9280013
346,2022-11-10,Toledo,Ohio,41.6735387,-83.5702376
347,2022-11-10,Chicago,Illinois,41.72199,-87.626064
348,2022-11-10,Cleveland (Garfield Heights),Ohio,41.4148478,-81.6062392
349,2022-11-10,Albany,New York,42.6642213,-73.7638624
350,2022-11-10,North Las Vegas,Nevada,36.220304,-115.1185961
351,2022-11-10,Atlanta,Georgia,33.8483737,-84.3571008
352,2022-11-10,Corona (Queens),New York,40.7449859,-73.8642613
353,2022-11-10,Brooklyn,New York,40.5770057,-74.0021642
354,2022-11-10,Decatur,Georgia,33.7397785,-84.2216068
355,2022-11-10,Pueblo,Colorado,38.3059856,-104.6068588
356,2022-11-10,Katy,Texas,29.8176252,-95.7150939
357,2022-11-10,Little Rock,Arkansas,34.7561493,-92.4250713
358,2022-11-10,Selma,Alabama,32.4138092,-87.0172461
359,2022-11-10,Miami,Florida,25.9620558,-80.1892501
360,2022-11-10,Baltimore,Maryland,39.2378704,-76.6583835
361,2022-11-10,Washington,District of Columbia,38.9121328,-76.9360156
362,2022-11-10,Washington,District of Columbia,38.8561913,-76.9869967
363,2022-11-10,El Paso,Texas,31.859008,-106.4365603
364,2022-11-10,Indianapolis,Indiana,39.8182084,-86.0990396
365,2022-11-10,Philadelphia,Pennsylvania,39.9951562,-75.1522276
366,2022-11-10,Chicago,Illinois,41.7822232,-87.6059671
367,2022-11-10,Jacksonville,Florida,30.28921,-81.6171243
368,2022-11-10,Chicago,Illinois,41.758505,-87.6227826
369,2022-11-10,Chicago,Illinois,41.8146414,-87.6184297
370,2022-11-10,Shreveport,Louisiana,32.4898694,-93.7376662
371,2022-11-10,Swainsboro,Georgia,32.6052113,-82.343981
372,2022-11-10,New Orleans,Louisiana,29.962082,-90.0208059
373,2022-11-10,Los Angeles,California,34.1115716,-118.3333441
374,2022-11-10,Baton Rouge,Louisiana,30.4309972,-91.0586039
375,2022-11-09,Oakton,Virginia,38.8765699,-77.3393745
376,2022-11-09,Hatton,Alabama,34.5550514,-87.3973836
377,2022-11-09,Kansas City,Kansas,39.1242019,-94.659524
378,2022-11-09,Hartford,Connecticut,41.7842556,-72.6750159
379,2022-11-09,Toledo,Ohio,41.6901061,-83.5788068
380,2022-11-09,Grand Junction,Colorado,39.1642676,-108.6452586
381,2022-11-09,Chicago,Illinois,41.7027269,-87.5644298
382,2022-11-09,North Las Vegas,Nevada,36.2393163,-115.1530115
383,2022-11-09,Kingsburg,California,36.5253552,-119.5585041
384,2022-11-09,Tampa,Florida,28.0278089,-82.4480742
385,2022-11-09,Silver Spring,Maryland,39.0069149,-76.9866457
386,2022-11-09,Chandler,Arizona,33.2916121,-111.8416136
387,2022-11-09,Denver (Northglenn),Colorado,39.8887339,-104.94743
388,2022-11-09,Pittsburgh,Pennsylvania,40.3937831,-80.065061
389,2022-11-09,Urbana,Illinois,40.1016187,-88.1904801
390,2022-11-09,Philadelphia,Pennsylvania,40.0271721,-75.0792152
391,2022-11-09,Killeen,Texas,31.1108506,-97.7326006
392,2022-11-09,Decatur,Georgia,33.6832923,-84.2329644
393,2022-11-09,Erwin,North Carolina,35.3160099,-78.6487109
394,2022-11-09,Toledo,Ohio,41.6582686,-83.5289119
395,2022-11-09,Corona (Queens),New York,40.7449859,-73.8642613
396,2022-11-09,Merced,California,37.2989189,-120.4939326
397,2022-11-09,Chicago,Illinois,41.8957388,-87.7190797
398,2022-11-09,Catoosa,Oklahoma,36.2474949,-95.7169845
399,2022-11-09,Connersville,Indiana,39.5597627,-85.0894365
400,2022-11-09,Newberry,Florida,29.5742814,-82.6347968
401,2022-11-09,Chicago,Illinois,42.0026324,-87.6721539
402,2022-11-09,Duluth,Georgia,33.9760196,-84.0915911
403,2022-11-09,Dothan,Alabama,31.2333425,-85.3896536
404,2022-11-09,Birmingham,Alabama,33.5432877,-86.769485
405,2022-11-09,Boston,Massachusetts,42.2923583,-71.090028
406,2022-11-09,New Orleans,Louisiana,30.0600112,-89.9546689
407,2022-11-08,Little Rock,Arkansas,34.7342434,-92.3261104
408,2022-11-08,Minneapolis (Brooklyn Park),Minnesota,45.0710836,-93.3574148
409,2022-11-08,Richmond,Virginia,37.5023807,-77.4366758
410,2022-11-08,Memphis (Bartlett),Tennessee,35.189852,-89.85094
411,2022-11-08,South Gate,California,33.9553514,-118.2179644
412,2022-11-08,New Haven,Connecticut,41.3072637,-72.8953534
413,2022-11-08,Jacksonville,North Carolina,34.7209827,-77.4514136
414,2022-11-08,Memphis,Tennessee,35.0427939,-90.0794394
415,2022-11-08,Memphis,Tennessee,35.0496092,-89.8590859
416,2022-11-08,Whigham,Georgia,30.7514227,-84.3740933
417,2022-11-08,Chicago,Illinois,41.8936811,-87.7113811
418,2022-11-08,Columbus,Georgia,32.4603673,-84.9008252
419,2022-11-08,Villa Rica,Georgia,33.7360462,-84.9468401
420,2022-11-08,Lafayette,Colorado,39.987268,-105.092302
421,2022-11-08,Umatilla,Florida,28.9128512,-81.6716392
422,2022-11-08,Gainesville,Florida,29.6530022,-82.2961314
423,2022-11-08,Temple Hills (Hillcrest Heights),Maryland,38.8299081,-76.9639297
424,2022-11-08,Indianapolis,Indiana,39.8257962,-86.1061248
425,2022-11-08,Philadelphia,Pennsylvania,39.9367299,-75.1669604
426,2022-11-08,Houston,Texas,29.9203178,-95.2017143
427,2022-11-08,Indianapolis,Indiana,39.8183669,-86.0646256
428,2022-11-08,Pittsburgh,Pennsylvania,40.4081359,-79.9920828
429,2022-11-08,Philadelphia,Pennsylvania,40.0164323,-75.0740335
430,2022-11-08,Nashville,Tennessee,36.1291799,-86.7691905
431,2022-11-08,Bancroft,Idaho,42.6890651,-111.759579
432,2022-11-08,Everett,Pennsylvania,40.00975,-78.3771788
433,2022-11-08,Dallas,Texas,32.8028276,-96.834538
434,2022-11-08,Outlook,Washington,46.3315402,-120.1040218
435,2022-11-08,Birmingham,Alabama,33.4813129,-86.8928402
436,2022-11-08,Gainesville,Georgia,34.2870829,-83.7975252
437,2022-11-08,Greeley,Colorado,40.4072594,-104.6776746
438,2022-11-08,Oklahoma City,Oklahoma,35.4141941,-97.4673597
439,2022-11-08,Seattle,Washington,47.7264012,-122.3366054
440,2022-11-08,Springfield,Massachusetts,42.0854196,-72.5539114
441,2022-11-07,Troy,Michigan,42.5615439,-83.1374252
442,2022-11-07,Fairbanks,Alaska,64.8341883,-147.8014199
443,2022-11-07,Atlanta,Texas,33.1165809,-94.1686758
444,2022-11-07,Laurinburg,North Carolina,34.7878772,-79.4490557
445,2022-11-07,Kernersville,North Carolina,36.0522009,-80.1117906
446,2022-11-07,Memphis,Tennessee,35.0218319,-89.9550341
447,2022-11-07,Columbus,Ohio,40.0102303,-82.9523598
448,2022-11-07,Warren,Ohio,41.2363511,-80.8041791
449,2022-11-07,Magnolia,Kentucky,37.3391974,-85.7571546
450,2022-11-07,Warner Robins,Georgia,32.5490932,-83.6627555
451,2022-11-07,Houston,Texas,29.6863652,-95.375573
452,2022-11-07,Charlotte,North Carolina,35.2602898,-80.8042047
453,2022-11-07,Redan,Georgia,33.7304059,-84.172321
454,2022-11-07,Cleveland,Ohio,41.4668015,-81.6407314
455,2022-11-07,Brooklyn,New York,40.673308,-73.8711491
456,2022-11-07,Detroit,Michigan,42.3567638,-83.1292219
457,2022-11-07,Baltimore,Maryland,39.2917312,-76.5631795
458,2022-11-07,West Memphis,Arkansas,35.1565569,-90.124265
459,2022-11-07,Weaverville,California,40.732178,-122.9407927
460,2022-11-07,Bonaire,Georgia,32.5649769,-83.594136
461,2022-11-07,Indianapolis,Indiana,39.7176577,-86.2548905
462,2022-11-07,Amarillo,Texas,35.1249593,-101.9033312
463,2022-11-07,Philadelphia,Pennsylvania,39.9670315,-75.1604159
464,2022-11-07,Silsbee,Texas,30.4029421,-94.2122009
465,2022-11-07,Peoria,Illinois,40.7195123,-89.6001418
466,2022-11-07,San Francisco,California,37.7372106,-122.3899382
467,2022-11-07,Little Rock,Arkansas,34.716889,-92.2898006
468,2022-11-07,Little Rock,Arkansas,34.7973889,-92.4185939
469,2022-11-07,Rutland,Vermont,43.6107097,-72.9883198
470,2022-11-07,San Antonio (Leon Valley),Texas,29.4856723,-98.6150459
471,2022-11-07,Johnson City,Tennessee,36.3384011,-82.3395727
472,2022-11-07,Hartford,Connecticut,41.7880164,-72.679765
473,2022-11-07,Brooklyn,New York,40.6860088,-73.8710228
474,2022-11-07,Mobile,Alabama,30.70758,-88.2438512
475,2022-11-07,Detroit,Michigan,42.4309962,-83.2588384
476,2022-11-06,Norfolk,Virginia,36.8901594,-76.2202069
477,2022-11-06,Pell City,Alabama,33.6123679,-86.376728
478,2022-11-06,Cleveland,Ohio,41.4911269,-81.661646
479,2022-11-06,Telford,Tennessee,36.240024,-82.5791868
480,2022-11-06,Dyersburg,Tennessee,36.030889,-89.4063145
481,2022-11-06,Raleigh,North Carolina,35.7654538,-78.62837
482,2022-11-06,Cleveland,Ohio,41.4568321,-81.5964675
483,2022-11-06,Tulsa,Oklahoma,36.1479001,-95.8511549
484,2022-11-06,Chicago,Illinois,41.7141708,-87.630727
485,2022-11-06,Florence,South Carolina,34.1857511,-79.7573343
486,2022-11-06,Charlotte,North Carolina,35.2144752,-80.772862
487,2022-11-06,Chicago,Illinois,41.896314,-87.6362358
488,2022-11-06,Pueblo,Colorado,38.2602953,-104.6485932
489,2022-11-06,Hartford,Connecticut,41.7882875,-72.6616109
490,2022-11-06,Memphis,Tennessee,35.2106519,-90.0252669
491,2022-11-06,Saint Marys,West Virginia,39.3962715,-81.114579
492,2022-11-06,Mesa,Arizona,33.398408,-111.8690115
493,2022-11-06,Chattanooga,Tennessee,35.0407321,-85.2417013
494,2022-11-06,Atlanta,Georgia,33.6745692,-84.5131455
495,2022-11-06,Saint Louis,Missouri,38.5513584,-90.2665335
496,2022-11-06,Mesa,Arizona,33.4218676,-111.6691933
497,2022-11-06,Decatur,Georgia,33.7101715,-84.1902035
498,2022-11-06,Tampa,Florida,28.0594268,-82.5035712
499,2022-11-06,Fort Pierce,Florida,27.4719325,-80.3572301
500,2022-11-06,Bowling Green,Kentucky,36.9376069,-86.4260444
501,2022-11-06,Baltimore,Maryland,39.2988118,-76.6456838
502,2022-11-06,Willowbrook,Illinois,41.7690163,-87.9692179
503,2022-11-06,Columbia,Missouri,38.9674247,-92.2711831
504,2022-11-06,Tucson,Arizona,32.3771084,-111.0725534
505,2022-11-06,North Hills,California,34.223542,-118.4672678
506,2022-11-06,Zion,Illinois,42.4571331,-87.834064
507,2022-11-06,Fort Lauderdale (Davie),Florida,26.0616744,-80.2103448
508,2022-11-06,Oakland,California,37.7393503,-122.1695272
509,2022-11-06,Wewoka,Oklahoma,,
510,2022-11-06,Yankton,South Dakota,42.889063,-97.3620054
511,2022-11-06,Jacksonville,Florida,30.3237789,-81.6917024
512,2022-11-06,Jacksonville,Florida,30.3441057,-81.675627
513,2022-11-06,Bakersfield,California,35.3832967,-118.9281286
514,2022-11-06,Shippensburg,Pennsylvania,40.05751,-77.517096
515,2022-11-06,Baltimore,Maryland,39.3514517,-76.6838533
516,2022-11-06,Omaha,Nebraska,41.2832372,-95.9890126
517,2022-11-06,Pittsburgh,Pennsylvania,40.4755975,-79.9378092
518,2022-11-06,Philadelphia,Pennsylvania,40.0673333,-75.0513439
519,2022-11-06,Indianapolis,Indiana,39.6895822,-86.2402027
520,2022-11-06,Billings,Montana,45.7781405,-108.5036505
521,2022-11-06,Chicago,Illinois,41.850006,-87.7002996
522,2022-11-06,Jonesboro,Georgia,33.5780952,-84.3733545
523,2022-11-06,Springfield,Ohio,39.9221481,-83.763266
524,2022-11-06,Newport,Washington,48.1747558,-117.0441819
525,2022-11-06,Pinson,Alabama,33.6242229,-86.7340558
526,2022-11-06,San Antonio,Texas,29.4093974,-98.4059583
527,2022-11-06,Milwaukee,Wisconsin,43.0991973,-88.0066444
528,2022-11-06,Milwaukee,Wisconsin,43.0823866,-87.9384494
529,2022-11-06,Roanoke,Virginia,37.2851602,-79.9837875
530,2022-11-06,Taunton,Massachusetts,41.898824,-71.100561
531,2022-11-06,Boston,Massachusetts,42.2756673,-71.0976652
532,2022-11-06,Brockton,Massachusetts,42.0677602,-71.0132615
533,2022-11-06,Missouri City,Texas,29.5223152,-95.4917502
534,2022-11-06,Alexandria,Louisiana,31.2892533,-92.4390245
535,2022-11-05,Houston,Texas,29.9612382,-95.4241071
536,2022-11-05,Chicago,Illinois,41.7495546,-87.576155
537,2022-11-05,Baton Rouge,Louisiana,30.4628336,-91.058707
538,2022-11-05,Fort Worth,Texas,32.8223326,-97.0618257
539,2022-11-05,Ceres,California,37.5733277,-120.946242
540,2022-11-05,El Dorado,Arkansas,33.1873555,-92.6416216
541,2022-11-05,Terre Haute,Indiana,39.5147237,-87.290579
542,2022-11-05,Glendale,Arizona,33.5094013,-112.1687919
543,2022-11-05,Summerville,South Carolina,32.9340515,-80.1413441
544,2022-11-05,Virginia Beach,Virginia,36.7945872,-76.142936
545,2022-11-05,Albuquerque,New Mexico,35.1026663,-106.49733
546,2022-11-05,Mount Pleasant,Michigan,43.599509,-84.7422023
547,2022-11-05,Richmond,Virginia,37.466056,-77.441086
548,2022-11-05,Unityville,Pennsylvania,41.2733412,-76.4624301
549,2022-11-05,Florence,South Carolina,34.2285083,-79.7819833
550,2022-11-05,Norfolk,Virginia,36.8682011,-76.2330385
551,2022-11-05,Durham,North Carolina,35.9925994,-78.8818936
552,2022-11-05,Euclid,Ohio,41.6069012,-81.5068513
553,2022-11-05,Euless,Texas,32.818213,-97.0721718
554,2022-11-05,Columbus,Ohio,40.0462518,-82.9621099
555,2022-11-05,Augusta,Georgia,33.4276347,-82.0502695
556,2022-11-05,Okeana,Ohio,39.3545592,-84.7389588
557,2022-11-05,Saint Louis,Missouri,38.6411073,-90.1954954
558,2022-11-05,Bullhead City,Arizona,35.1076019,-114.6390783
559,2022-11-05,Atlanta,Georgia,33.7103244,-84.423647
560,2022-11-05,Calhoun,Georgia,34.5044786,-84.9610315
561,2022-11-05,Saint Louis,Missouri,38.5733968,-90.2595462
562,2022-11-05,Hickory,North Carolina,35.7395,-81.3189147
563,2022-11-05,Houston,Texas,29.8053965,-95.3636438
564,2022-11-05,Spring,Texas,30.0620452,-95.4422795
565,2022-11-05,Denver,Colorado,39.7294951,-105.0510222
566,2022-11-05,Baltimore,Maryland,39.3395734,-76.6848423
567,2022-11-05,Bryson City,North Carolina,35.3527448,-83.4245599
568,2022-11-05,Gretna,Florida,30.616075,-84.6632013
569,2022-11-05,Niceville,Florida,30.5263616,-86.4670914
570,2022-11-05,Belleville,Illinois,38.5107134,-89.9799413
571,2022-11-05,Lawton,Oklahoma,34.6235948,-98.4182939
572,2022-11-05,Belle Vernon,Pennsylvania,40.1384201,-79.8483274
573,2022-11-05,Jacksonville,Florida,30.3049829,-81.6454608
574,2022-11-05,Baltimore,Maryland,39.3049337,-76.5825171
575,2022-11-05,Baltimore,Maryland,39.3072775,-76.5759935
576,2022-11-05,Athens,Alabama,34.7665375,-87.0545662
577,2022-11-05,Dripping Springs,Texas,30.1902067,-98.0866781
578,2022-11-05,West Palm Beach,Florida,26.6657266,-80.146104
579,2022-11-05,San Diego,California,32.7083733,-117.1494391
580,2022-11-05,Steilacoom,Washington,47.1746852,-122.5962712
581,2022-11-05,Indianapolis,Indiana,39.8025245,-86.1296269
582,2022-11-05,Zion,Illinois,42.4611933,-87.8374706
583,2022-11-05,Minden,Louisiana,,
584,2022-11-05,Attalla,Alabama,34.0176984,-86.0718567
585,2022-11-05,Dryden,Virginia,36.7744639,-82.9439062
586,2022-11-05,Philadelphia,Pennsylvania,39.9902826,-75.1738367
587,2022-11-05,Philadelphia,Pennsylvania,40.0043376,-75.1838925
588,2022-11-05,Memphis,Tennessee,35.1857207,-89.8618544
589,2022-11-05,Milwaukee,Wisconsin,43.0972452,-87.9578125
590,2022-11-05,Irvington,New Jersey,40.7397404,-74.2149789
591,2022-11-05,New Bedford,Massachusetts,41.6609388,-70.9248882
592,2022-11-05,Norwich,Connecticut,41.5039552,-72.094913
593,2022-11-04,Orlando,Florida,28.5613996,-81.2408474
594,2022-11-04,Cleveland,Ohio,41.516054,-81.620491
595,2022-11-04,Oakland,California,37.7498195,-122.192279
596,2022-11-04,Las Vegas,Nevada,36.1750337,-115.2182752
597,2022-11-04,Las Vegas,Nevada,36.2052756,-115.2779474
598,2022-11-04,Topeka,Kansas,38.983702,-95.6881229
599,2022-11-04,Chicago,Illinois,41.8114819,-87.5945895
600,2022-11-04,Mcdonough,Georgia,33.4494161,-84.1946088
601,2022-11-04,Boston,Massachusetts,42.3459789,-71.0759849
602,2022-11-04,Lawrenceburg,Kentucky,37.8804029,-85.2570503
603,2022-11-04,Birmingham,Alabama,33.5371936,-86.7695832
604,2022-11-04,Saint Louis,Missouri,38.6390031,-90.1909362
605,2022-11-04,Norcross,Georgia,33.9109269,-84.1686134
606,2022-11-04,Nashville,Tennessee,36.2059255,-86.7809494
607,2022-11-04,Huntington,West Virginia,38.4228222,-82.4328606
608,2022-11-04,Pueblo,Colorado,38.2875244,-104.5753145
609,2022-11-04,Wood (county),Texas,32.8631217,-95.1579659
610,2022-11-04,Gary,Indiana,41.5765525,-87.3558489
611,2022-11-04,Pullman,Michigan,42.4478099,-86.090187
612,2022-11-04,Fayetteville,North Carolina,35.0384299,-78.8354081
613,2022-11-04,Plantation,Florida,26.135981,-80.258323
614,2022-11-04,La Plata,Maryland,38.5382036,-76.9552817
615,2022-11-04,Odessa,Texas,31.9162087,-102.3961302
616,2022-11-04,Miami,Florida,25.8405376,-80.2211801
617,2022-11-04,Louisville,Kentucky,38.2211875,-85.6309006
618,2022-11-04,Memphis,Tennessee,35.1786893,-90.0219358
619,2022-11-04,Lawndale,California,33.8973284,-118.3446539
620,2022-11-04,Champaign,Illinois,40.1264345,-88.2501898
621,2022-11-04,Stone Mountain,Georgia,33.7645476,-84.2003007
622,2022-11-04,Atlanta,Georgia,33.668472,-84.5011546
623,2022-11-04,Hobart,Indiana,41.542866,-87.2568227
624,2022-11-04,Lansdowne (Yeadon),Pennsylvania,39.9399151,-75.2425052
625,2022-11-04,Philadelphia,Pennsylvania,39.9905954,-75.1216575
626,2022-11-04,Mobile (Prichard),Alabama,30.7502808,-88.1167746
627,2022-11-04,Muncie,Indiana,40.1871937,-85.3804457
628,2022-11-04,Oxon Hill,Maryland,38.8171178,-77.0023658
629,2022-11-04,Chicago,Illinois,41.7793736,-87.6985927
630,2022-11-04,Philadelphia,Pennsylvania,39.9503421,-75.2384591
631,2022-11-04,Philadelphia,Pennsylvania,39.954831,-75.2211633
632,2022-11-04,Washington,District of Columbia,38.9058027,-77.0220765
633,2022-11-04,Dayton,Ohio,39.7723912,-84.1375978
634,2022-11-04,Sacramento,California,38.4726131,-121.4375604
635,2022-11-04,Arroyo Grande,California,35.0767001,-120.5246926
636,2022-11-04,Greenwood,Mississippi,33.5173718,-90.1474202
637,2022-11-04,Jackson,Mississippi,32.3674793,-90.223989
638,2022-11-03,New Orleans,Louisiana,29.9850693,-90.0417937
639,2022-11-03,Mcdonald (county),Missouri,,
640,2022-11-03,Saint Louis,Missouri,38.6806088,-90.2764022
641,2022-11-03,Petersburg,Virginia,37.2287208,-77.3886852
642,2022-11-03,Macon,Georgia,32.8448798,-83.6917426
643,2022-11-03,Mesa,Arizona,33.4502663,-111.7022006
644,2022-11-03,Chicago,Illinois,41.7436717,-87.6054077
645,2022-11-03,Germantown,Wisconsin,43.2503479,-88.0935842
646,2022-11-03,Baltimore,Maryland,39.2827673,-76.6450729
647,2022-11-03,Aurora,Colorado,39.6970024,-104.8141532
648,2022-11-03,Colorado Springs,Colorado,38.8367304,-104.8442992
649,2022-11-03,Brooklyn,New York,40.6085006,-73.9686316
650,2022-11-03,Camarillo,California,34.2185072,-119.0429621
651,2022-11-03,Temple,Texas,31.0919735,-97.3560185
652,2022-11-03,Bronx,New York,40.8788603,-73.8734881
653,2022-11-03,Compton,California,33.8781056,-118.2207252
654,2022-11-03,Magnolia,Texas,30.1806304,-95.6951233
655,2022-11-03,Detroit,Michigan,42.3486166,-82.9991729
656,2022-11-03,Dallas,Texas,32.8838331,-96.7179846
657,2022-11-03,Dallas,Texas,32.7128125,-96.6637449
658,2022-11-03,New Alexandria,Pennsylvania,40.3975597,-79.421384
659,2022-11-03,Tehachapi,California,35.1239031,-118.3887577
660,2022-11-03,Baltimore,Maryland,39.3153242,-76.6342657
661,2022-11-03,Seattle,Washington,47.5556985,-122.355573
662,2022-11-03,Homestead (Florida City),Florida,25.4617739,-80.4824016
663,2022-11-03,Jonesboro,Arkansas,35.851934,-90.7064467
664,2022-11-03,Columbia,South Carolina,34.0458067,-81.0355053
665,2022-11-03,Gadsden,Alabama,33.9929355,-85.975201
666,2022-11-02,New Orleans,Louisiana,30.0323483,-89.971831
667,2022-11-02,Opelousas,Louisiana,30.5411458,-92.0803551
668,2022-11-02,Salt Lake City (Murray),Utah,40.7716909,-111.8565654
669,2022-11-02,Bohemia,New York,40.7684355,-73.1085994
670,2022-11-02,Saint Pauls,North Carolina,34.7894879,-78.9257966
671,2022-11-02,Chicago,Illinois,41.7471385,-87.6515639
672,2022-11-02,Maquoketa,Iowa,42.1351076,-90.6852177
673,2022-11-02,Chicago,Illinois,41.8682404,-87.7218979
674,2022-11-02,Miami,Florida,25.85114,-80.1970374
675,2022-11-02,Phoenix,Arizona,33.4659673,-112.1517934
676,2022-11-02,Mount Juliet,Tennessee,36.1537385,-86.5162637
677,2022-11-02,Fresno,California,36.819375,-119.7797425
678,2022-11-02,Phoenix,Arizona,33.4659494,-112.138817
679,2022-11-02,West Covina,California,34.0114335,-117.880103
680,2022-11-02,Albuquerque,New Mexico,35.0633592,-106.5794467
681,2022-11-02,Orlando,Florida,28.4724198,-81.4090133
682,2022-11-02,Cedar Hill,Texas,32.5608608,-96.9082204
683,2022-11-02,Fort Wayne,Indiana,41.0659625,-85.1428524
684,2022-11-02,Jacksonville,Florida,30.3327953,-81.7237475
685,2022-11-02,Charlotte,North Carolina,35.1546021,-80.7457791
686,2022-11-02,Tamaqua,Pennsylvania,40.7937858,-75.9757257
687,2022-11-02,Dallas,Texas,32.798309,-96.8257573
688,2022-11-02,Taylor Township,Indiana,39.4419331,-86.7645803
689,2022-11-02,Hattiesburg,Mississippi,31.3326636,-89.3100554
690,2022-11-02,Lithonia,Georgia,33.7064811,-84.1417345
691,2022-11-02,Macon,Georgia,32.8426954,-83.6543249
692,2022-11-02,Baltimore,Maryland,39.3050814,-76.6017981
693,2022-11-02,Chicago,Illinois,41.884904,-87.711337
694,2022-11-02,Alexandria,Louisiana,31.2759199,-92.4335708
695,2022-11-02,Portland,Oregon,45.5693206,-122.6153666
696,2022-11-02,Anderson,South Carolina,34.495454,-82.603198
697,2022-11-02,Erwin,North Carolina,35.3820627,-78.716391
698,2022-11-02,Mount Orab,Ohio,39.0473127,-83.9224065
699,2022-11-02,Jackson,Mississippi,32.3210576,-90.1666199
700,2022-11-02,Millville,New Jersey,39.3995207,-75.0342752
701,2022-11-02,Brunswick,Georgia,31.2248336,-81.508659
702,2022-11-02,Seneca,Missouri,36.8093937,-94.5932433
703,2022-11-01,Riverside,California,33.9054757,-117.4896368
704,2022-11-01,East Saint Louis,Illinois,38.6236735,-90.1523148
705,2022-11-01,Brandon,Florida,27.9355834,-82.2767725
706,2022-11-01,Meridian,Mississippi,32.3749928,-88.6811676
707,2022-11-01,Memphis,Tennessee,35.1029192,-90.0298189
708,2022-11-01,Saint Paul,Minnesota,44.9629949,-93.0751087
709,2022-11-01,Saint Paul (North Saint Paul),Minnesota,45.0262967,-93.003373
710,2022-11-01,Denver,Colorado,39.7388528,-104.8903193
711,2022-11-01,Wyoming,Michigan,42.9336864,-85.730696
712,2022-11-01,Memphis,Tennessee,35.1769474,-89.9726901
713,2022-11-01,Heiskell,Tennessee,36.1116066,-84.019572
714,2022-11-01,Orlando,Florida,28.4868543,-81.4175083
715,2022-11-01,Deland,Florida,29.0111177,-81.317442
716,2022-11-01,Columbus,Ohio,39.9751261,-82.9597965
717,2022-11-01,Cleveland,Ohio,41.5141112,-81.620396
718,2022-11-01,Brooklyn,New York,40.6664459,-73.9536049
719,2022-11-01,Mesa,Arizona,33.4155806,-111.6846125
720,2022-11-01,Palmdale,California,34.6036659,-118.182041
721,2022-11-01,Bloomington,California,34.0613964,-117.3904815
722,2022-11-01,Hartwell,Georgia,34.335697,-82.9405637
723,2022-11-01,Houston,Texas,29.7537638,-95.3644994
724,2022-11-01,Roanoke (Trophy Club),Texas,32.9958338,-97.1878708
725,2022-11-01,Bakersfield,California,35.3713416,-118.9555585
726,2022-11-01,Indianapolis,Indiana,39.799652,-86.0786644
727,2022-11-01,Sylvester,Georgia,31.5233482,-83.8259812
728,2022-11-01,New Port Richey,Florida,28.2575838,-82.7036111
729,2022-11-01,Rochester,New York,43.1623177,-77.5963777
730,2022-11-01,Chicago,Illinois,41.963758,-87.6468868
731,2022-11-01,Thonotosassa,Florida,28.0318358,-82.3522812
732,2022-11-01,Atlanta,Georgia,33.8596531,-84.303954
733,2022-11-01,Decatur,Alabama,34.5953785,-86.9672652
734,2022-11-01,Montgomery,Alabama,32.3506631,-86.2158492
735,2022-11-01,Lathrop,California,40.7849736,-122.3083439
736,2022-11-01,Milwaukee,Wisconsin,43.0816747,-87.9198437
737,2022-11-01,Highland Park,Michigan,42.392156,-83.0954609
738,2022-11-01,Jersey City,New Jersey,40.73624,-74.075729
739,2022-10-31,Austin,Texas,30.3308911,-97.6926832
740,2022-10-31,Louisville,Kentucky,38.2526647,-85.7584557
741,2022-10-31,Montgomery,Alabama,32.3509846,-86.2200288
742,2022-10-31,Saginaw,Michigan,43.3809039,-83.9209931
743,2022-10-31,Hawaiian Gardens,California,33.8294735,-118.0808537
744,2022-10-31,Cincinnati,Ohio,39.1623971,-84.5482542
745,2022-10-31,Waterbury,Connecticut,41.5625287,-73.0475839
746,2022-10-31,Kansas City,Kansas,39.0706566,-94.6951625
747,2022-10-31,Inkster,Michigan,42.2881423,-83.3020378
748,2022-10-31,Los Angeles,California,33.9602196,-118.243085
749,2022-10-31,Albuquerque,New Mexico,35.0884583,-106.653302
750,2022-10-31,Raleigh,North Carolina,35.8673679,-78.5934074
751,2022-10-31,North Charleston,South Carolina,32.8544768,-79.9698256
752,2022-10-31,Jackson,Tennessee,35.6553275,-88.8720809
753,2022-10-31,Visalia,California,36.3419235,-119.2946494
754,2022-10-31,Flint,Michigan,43.0014449,-83.645186
755,2022-10-31,Cleveland,Tennessee,35.1904472,-84.8293193
756,2022-10-31,Columbus,Ohio,40.0163697,-82.9839899
757,2022-10-31,Washington,District of Columbia,38.8582181,-76.9963952
758,2022-10-31,Cincinnati,Ohio,39.1329016,-84.4972526
759,2022-10-31,Houston,Texas,29.9127921,-95.4547258
760,2022-10-31,Chicago Heights (Ford Heights),Illinois,41.5062628,-87.5884539
761,2022-10-31,Atlanta,Georgia,33.7132651,-84.3099477
762,2022-10-31,Philadelphia,Pennsylvania,40.0020374,-75.132738
763,2022-10-31,Pittsburgh,Pennsylvania,40.460703,-79.8974905
764,2022-10-31,Houston,Texas,29.6379181,-95.2369503
765,2022-10-31,Bonita Springs,Florida,26.3456957,-81.7699111
766,2022-10-31,Midlothian,Virginia,37.5010404,-77.6537243
767,2022-10-31,Cedar Hill,Tennessee,36.3772944,-86.9887191
768,2022-10-31,Long Beach,California,33.8187528,-118.1838161
769,2022-10-31,Philadelphia,Pennsylvania,39.9384088,-75.2188835
770,2022-10-31,Atlanta,Georgia,33.7914279,-84.4036841
771,2022-10-31,Philadelphia,Pennsylvania,40.0020374,-75.132738
772,2022-10-31,Corpus Christi,Texas,27.7030175,-97.3688398
773,2022-10-31,Philadelphia,Pennsylvania,39.9187161,-75.23497
774,2022-10-31,Chicago,Illinois,41.8710582,-87.6960255
775,2022-10-31,Chicago,Illinois,41.8755295,-87.7226795
776,2022-10-31,Kansas City (Raytown),Missouri,38.9651519,-94.4653794
777,2022-10-31,Natrona Heights,Pennsylvania,40.6534422,-79.7462561
778,2022-10-31,Madras,Oregon,44.623064,-121.1231965
779,2022-10-31,Montgomery,Illinois,41.7277296,-88.3280778
780,2022-10-31,Cheyenne,Wyoming,41.154456,-104.7245343
781,2022-10-31,Mobile,Alabama,30.6889908,-88.0424775
782,2022-10-31,Brooklyn,New York,40.5980477,-73.94102
783,2022-10-31,Sherwood,Arkansas,34.828781,-92.2368429
784,2022-10-31,Joplin,Missouri,37.0667477,-94.5292274
785,2022-10-30,Goldsboro,North Carolina,35.3434411,-78.0383
786,2022-10-30,Omaha,Nebraska,41.250912,-95.9570315
787,2022-10-30,Greeneville,Tennessee,36.1423356,-82.8282678
788,2022-10-30,Sacramento,California,38.483156,-121.45494
789,2022-10-30,Palm Springs,California,33.8159289,-116.4936898
790,2022-10-30,Parkville,Maryland,39.372258,-76.5669079
791,2022-10-30,Kansas City,Missouri,38.9558198,-94.5489647
792,2022-10-30,Austin,Texas,30.2675318,-97.7365724
793,2022-10-30,Portsmouth,Virginia,36.8260517,-76.3087179
794,2022-10-30,San Jose,California,37.3588605,-121.8933179
795,2022-10-30,Denver,Colorado,39.6553123,-104.8719176
796,2022-10-30,Phoenix,Arizona,33.4804205,-112.2032694
797,2022-10-30,Falls Church,Virginia,38.8457768,-77.1220445
798,2022-10-30,Longmont,Colorado,40.2468295,-105.1028253
799,2022-10-30,Chattanooga,Tennessee,35.0520933,-85.1863279
800,2022-10-30,San Luis,Arizona,32.4947434,-114.6431799
801,2022-10-30,Louisville,Kentucky,38.1833639,-85.8553211
802,2022-10-30,Joliet,Illinois,41.5337211,-88.0642511
803,2022-10-30,Virginia Beach,Virginia,36.8435509,-75.9996439
804,2022-10-30,Brooklyn,New York,40.6800636,-73.9606394
805,2022-10-30,Aurora,Colorado,39.7301733,-104.8680482
806,2022-10-30,Memphis,Tennessee,35.0534003,-89.8969199
807,2022-10-30,Memphis,Tennessee,35.0970307,-89.9309312
808,2022-10-30,Columbus,Ohio,40.0009413,-82.9306016
809,2022-10-30,Cincinnati,Ohio,39.1451423,-84.4904771
810,2022-10-30,Davenport,Iowa,41.5538948,-90.5273599
811,2022-10-30,Cleveland,Ohio,41.4985081,-81.6937861
812,2022-10-30,Memphis,Tennessee,35.1484869,-90.0395336
813,2022-10-30,Winter Haven,Florida,28.0425283,-81.6983901
814,2022-10-30,Albuquerque,New Mexico,35.0740837,-106.6986141
815,2022-10-30,Baltimore,Maryland,39.2813084,-76.6526508
816,2022-10-30,Baltimore,Maryland,39.3382438,-76.6079877
817,2022-10-30,Mobile,Alabama,30.6735571,-88.1497242
818,2022-10-30,Houston,Texas,29.7356193,-95.6343442
819,2022-10-30,Dallas,Texas,32.769656,-96.755457
820,2022-10-30,Compton,California,33.9019517,-118.2610247
821,2022-10-30,Huntington Park,California,33.9835454,-118.2277751
822,2022-10-30,Columbus,Ohio,40.0020773,-82.9700462
823,2022-10-30,Washington,District of Columbia,38.834726,-76.9926132
824,2022-10-30,Hartsville,South Carolina,34.3555064,-80.0717124
825,2022-10-30,Kinston,North Carolina,35.2685117,-77.5707202
826,2022-10-30,Philadelphia,Pennsylvania,39.995874,-75.1202565
827,2022-10-30,Chicago,Illinois,41.923901,-87.79554
828,2022-10-30,Covina,California,34.0982239,-117.9165019
829,2022-10-30,Kansas City,Missouri,39.0831246,-94.5152833
830,2022-10-30,Moses Lake,Washington,47.1311496,-119.3210005
831,2022-10-30,Hammond,Louisiana,30.5190183,-90.5420803
832,2022-10-30,Little Rock,Arkansas,34.6827509,-92.3327363
833,2022-10-30,Montgomery,Alabama,32.3656768,-86.2118759
834,2022-10-30,Columbus,Mississippi,33.5034649,-88.4103973
835,2022-10-30,Vicksburg,Mississippi,32.327581,-90.839337
836,2022-10-30,Farmville,Virginia,37.3089853,-78.3845882
837,2022-10-30,Saint Louis,Missouri,38.5904823,-90.2341102
838,2022-10-30,Memphis,Tennessee,35.107905,-89.931939
839,2022-10-30,Victorville,California,34.484223,-117.3687089
840,2022-10-30,Pasadena,California,34.1596784,-118.1475892
841,2022-10-30,Houston,Texas,29.6372069,-95.2435743
842,2022-10-30,Santa Maria,California,34.943259,-120.4495053
843,2022-10-30,Gadsden,Alabama,34.0469138,-85.957974
844,2022-10-29,Carrollton,Texas,32.9603347,-96.8536509
845,2022-10-29,Paterson,New Jersey,40.9143745,-74.1759353
846,2022-10-29,Belleville,New Jersey,40.801851,-74.1513111
847,2022-10-29,Danville,Virginia,36.5942456,-79.4213854
848,2022-10-29,Houston,Texas,29.8595514,-95.4010191
849,2022-10-29,Rockingham,North Carolina,34.9227072,-79.7523861
850,2022-10-29,Petersburg,Virginia,37.2311958,-77.4144339
851,2022-10-29,Memphis,Tennessee,35.0738701,-89.9192156
852,2022-10-29,Rockford,Illinois,42.2882322,-89.1240855
853,2022-10-29,Wichita Falls,Texas,33.9229014,-98.5099962
854,2022-10-29,Kent,Washington,47.3484149,-122.1513944
855,2022-10-29,College Station,Texas,30.6172475,-96.3157745
856,2022-10-29,Indianapolis,Indiana,39.8115742,-86.064311
857,2022-10-29,Atlanta,Georgia,33.7557763,-84.3811868
858,2022-10-29,Fountain,Colorado,38.7370958,-104.7321784
859,2022-10-29,Southeast Growth Area,California,36.7593304,-119.6459938
860,2022-10-29,Memphis,Tennessee,35.0566728,-89.9088168
861,2022-10-29,Chicago,Illinois,41.8585942,-87.6735685
862,2022-10-29,Fort Myers,Florida,26.661838,-81.8379226
863,2022-10-29,Tampa,Florida,28.0333341,-82.4688185
864,2022-10-29,Holiday,Florida,28.1878348,-82.7399515
865,2022-10-29,Florissant,Missouri,38.7843446,-90.3366744
866,2022-10-29,Winter Garden,Florida,28.5676663,-81.5692103
867,2022-10-29,Chicago,Illinois,41.9004592,-87.7683193
868,2022-10-29,Toledo,Ohio,41.661701,-83.5825515
869,2022-10-29,Indianapolis,Indiana,39.7811401,-86.2072759
870,2022-10-29,Jackson,Michigan,42.2468553,-84.3818438
871,2022-10-29,Atlanta (Brookhaven),Georgia,33.844835,-84.3392038
872,2022-10-29,Greenfield,California,36.3220714,-121.2357016
873,2022-10-29,Tallahassee,Florida,30.440239,-84.3198951
874,2022-10-29,Houston,Texas,29.7374128,-95.2636893
875,2022-10-29,Houston,Texas,29.6538835,-95.56409
876,2022-10-29,Baltimore,Maryland,39.2892883,-76.6424317
877,2022-10-29,Birmingham (Homewood),Alabama,33.4711883,-86.8252896
878,2022-10-29,Los Angeles,California,34.0523407,-118.2721771
879,2022-10-29,Milwaukee,Wisconsin,43.0679041,-87.9551676
880,2022-10-29,Jacksonville,Florida,30.3717646,-81.679237
881,2022-10-29,Mauldin,South Carolina,34.7921615,-82.3018364
882,2022-10-29,San Jose,California,37.336706,-121.8610743
883,2022-10-29,Jacksonville,Florida,30.234365,-81.9300157
884,2022-10-29,Amarillo,Texas,35.2326762,-101.8555928
885,2022-10-29,Sioux City,Iowa,42.5022079,-96.4266436
886,2022-10-29,Erie,Pennsylvania,42.1166819,-80.0870809
887,2022-10-29,Bradenton,Florida,27.4796916,-82.5710962
888,2022-10-29,Columbia,South Carolina,33.9570062,-80.9390901
889,2022-10-29,Brent,Florida,30.460756,-87.263037
890,2022-10-29,South Bend,Indiana,41.6956784,-86.2813999
891,2022-10-29,Chicago,Illinois,41.7052111,-87.6332484
892,2022-10-29,Chicago,Illinois,41.8560075,-87.627352
893,2022-10-29,Kennewick,Washington,46.2038326,-119.134291
894,2022-10-29,Coram,New York,40.8740146,-72.9788583
895,2022-10-29,Murfreesboro,Tennessee,35.8493018,-86.4404681
896,2022-10-29,Baton Rouge,Louisiana,30.4705463,-91.15759
897,2022-10-29,Newark,New York,43.0611495,-77.0931839
898,2022-10-29,Hatchechubbee,Alabama,32.2797764,-85.3541605
899,2022-10-29,Memphis,Tennessee,35.0908233,-89.969917
900,2022-10-29,Clarksdale,Mississippi,34.1910586,-90.5725538
901,2022-10-29,West Memphis,Arkansas,35.1505212,-90.1674796
902,2022-10-29,Greenwell Springs,Louisiana,30.5132853,-91.0305274
903,2022-10-29,Henderson,Kentucky,37.7988398,-87.6385988
904,2022-10-29,Manchester,New Hampshire,42.9692188,-71.453549
905,2022-10-29,Fairfield,Alabama,33.4767341,-86.9235146
906,2022-10-29,Cochran,Georgia,32.4002595,-83.3486626
907,2022-10-28,Fayetteville,North Carolina,35.0002969,-78.9474961
908,2022-10-28,Oakland,California,37.7412675,-122.1678862
909,2022-10-28,Louisville,Kentucky,38.2554668,-85.7718905
910,2022-10-28,Burnet,Texas,30.7535223,-98.2182754
911,2022-10-28,Detroit,Michigan,42.3631616,-83.1950374
912,2022-10-28,North Highlands,California,38.6567131,-121.3780385
913,2022-10-28,Macon,Georgia,32.8635753,-83.5850961
914,2022-10-28,Minneapolis,Minnesota,44.9532609,-93.2534714
915,2022-10-28,San Diego,California,32.5719505,-117.0829019
916,2022-10-28,Roanoke,Virginia,37.2693841,-79.9581101
917,2022-10-28,National City,California,32.6728608,-117.0858233
918,2022-10-28,Washington,District of Columbia,38.83159,-76.9899503
919,2022-10-28,Seguin,Texas,29.5619001,-98.0345987
920,2022-10-28,Denver,Colorado,39.7147264,-104.9804233
921,2022-10-28,Atlanta,Georgia,33.755057,-84.4157278
922,2022-10-28,Aurora,Colorado,39.6009103,-104.8034212
923,2022-10-28,Indianapolis,Indiana,39.803404,-86.1143699
924,2022-10-28,Miami,Florida,25.8112381,-80.2094732
925,2022-10-28,Las Vegas,Nevada,36.1811869,-115.0962457
926,2022-10-28,Brooklyn,New York,40.6671487,-73.9592372
927,2022-10-28,Toledo,Ohio,41.6482423,-83.5771665
928,2022-10-28,Cleveland,Ohio,41.4483589,-81.698055
929,2022-10-28,Vernon Rockville (Vernon),Connecticut,41.8429822,-72.4816812
930,2022-10-28,Athens,Georgia,33.989924,-83.402494
931,2022-10-28,Midvale,Utah,40.5958314,-111.8957743
932,2022-10-28,Dallas,Texas,32.739691,-96.7986729
933,2022-10-28,Houston,Texas,29.6538835,-95.56409
934,2022-10-28,Boaz,Alabama,34.10299,-86.1551716
935,2022-10-28,Bakersfield,California,35.381169,-118.9779328
936,2022-10-28,Atlanta (College Park),Georgia,33.6167779,-84.4724925
937,2022-10-28,Indianapolis,Indiana,39.8153792,-86.0806753
938,2022-10-28,Vancleave,Mississippi,30.512619,-88.7721603
939,2022-10-28,Gary,Indiana,41.5400529,-87.3227716
940,2022-10-28,Emlenton,Pennsylvania,41.2010598,-79.7623739
941,2022-10-28,Chicago,Illinois,41.695848,-87.64287
942,2022-10-28,High Point,North Carolina,36.0614373,-79.9604918
943,2022-10-28,Jacksonville,Florida,30.3300523,-81.5857402
944,2022-10-28,Columbia,Missouri,38.933852,-92.3301744
945,2022-10-28,Nampa,Idaho,43.5937704,-116.5153346
946,2022-10-28,Bigfork,Montana,,
947,2022-10-28,Goldsboro,North Carolina,35.3360666,-78.040819
948,2022-10-28,Indianapolis,Indiana,39.8017955,-86.1134422
949,2022-10-28,Bellingham,Washington,48.7427304,-122.4810495
950,2022-10-28,Fort Worth,Texas,32.7460589,-97.2203108
951,2022-10-28,Montclair,New Jersey,40.8003179,-74.2134157
952,2022-10-27,Southington,Connecticut,41.6383409,-72.874394
953,2022-10-27,Hartford,Connecticut,41.7368163,-72.6966373
954,2022-10-27,Albuquerque,New Mexico,34.9931527,-106.7714898
955,2022-10-27,Bowie,Maryland,38.9855527,-76.7406637
956,2022-10-27,Philadelphia,Pennsylvania,39.9736069,-75.2065402
957,2022-10-27,Albuquerque,New Mexico,35.0734387,-106.583919
958,2022-10-27,Elmwood Park,New Jersey,40.92026,-74.1281142
959,2022-10-27,Sacramento,California,38.5078428,-121.4645564
960,2022-10-27,Houston,Texas,29.715321,-95.3677551
961,2022-10-27,New Orleans,Louisiana,30.0461974,-89.9857677
962,2022-10-27,Wichita Falls,Texas,33.9115168,-98.4763369
963,2022-10-27,Baltimore,Maryland,39.2500731,-76.6406395
964,2022-10-27,Orlando,Florida,28.482337,-81.2903566
965,2022-10-27,Alice,Texas,27.7758361,-98.0794677
966,2022-10-27,Mesa,Arizona,33.4076527,-111.8566938
967,2022-10-27,Milwaukee,Wisconsin,43.0661037,-87.9749421
968,2022-10-27,Effingham,South Carolina,34.074322,-79.710879
969,2022-10-27,Birmingham,Alabama,33.559401,-86.7766113
970,2022-10-27,Oro Grande,California,34.6012983,-117.3382396
971,2022-10-27,Atlanta,Georgia,33.7707569,-84.3527733
972,2022-10-27,Saint Louis (Ferguson),Missouri,38.7460331,-90.2920749
973,2022-10-27,Brooklyn,New York,40.657037,-73.9130907
974,2022-10-27,Long Beach,California,33.7753539,-118.180708
975,2022-10-27,Atlanta,Georgia,33.7724544,-84.3710033
976,2022-10-27,Willows,California,39.4656595,-122.1929736
977,2022-10-27,Indianapolis (Lawrence),Indiana,39.8125951,-86.0464007
978,2022-10-27,Tampa,Florida,28.0271668,-82.4667869
979,2022-10-27,Los Angeles,California,33.9930127,-118.2564654
980,2022-10-27,Broken Arrow,Oklahoma,36.0473173,-95.8020345
981,2022-10-27,La Porte (Laporte),Indiana,41.6011943,-86.6948977
982,2022-10-27,Jacksonville,Florida,30.3362311,-81.7555519
983,2022-10-27,Washington,District of Columbia,38.902452,-76.986785
984,2022-10-27,Elyria,Ohio,41.3477876,-82.1055479
985,2022-10-27,Orlando,Florida,28.5141017,-81.4051673
986,2022-10-27,Durham,North Carolina,35.9803403,-78.9048504
987,2022-10-27,Hemet,California,33.7473938,-116.9451518
988,2022-10-27,Washington,District of Columbia,38.9076511,-77.0160274
989,2022-10-27,Burlingame,California,37.5835611,-122.3367095
990,2022-10-27,Atlanta,Georgia,33.763682,-84.4115708
991,2022-10-27,Jacksonville,Florida,30.2448851,-81.5339723
992,2022-10-27,New York (Manhattan),New York,40.7275648,-73.9772676
993,2022-10-27,Las Vegas,Nevada,36.0832848,-115.2544034
994,2022-10-27,Woodbridge,Virginia,38.649974,-77.2610327
995,2022-10-27,Tulsa,Oklahoma,36.1593643,-95.9932416
996,2022-10-27,La Canada Flintridge,California,34.2302189,-118.1816621
997,2022-10-27,Lewisville,Texas,33.0077456,-96.9877397
998,2022-10-27,Detroit,Michigan,42.441043,-82.953493
999,2022-10-27,Newark,New Jersey,40.739943,-74.2220825
1000,2022-10-27,Bennington,Vermont,42.8803019,-73.1749089
1001,2022-10-26,Detroit,Michigan,42.433071,-82.9932656
1002,2022-10-26,New Rochelle,New York,40.9180979,-73.7891419
1003,2022-10-26,Memphis,Tennessee,35.0816087,-89.9722685
1004,2022-10-26,Richmond,Virginia,37.5764911,-77.4454789
1005,2022-10-26,Sandy,Utah,40.5649781,-111.8389726
1006,2022-10-26,Chicago,Illinois,42.009083,-87.6679057
1007,2022-10-26,Cleveland,Ohio,41.457524,-81.577123
1008,2022-10-26,Pittsburgh,Pennsylvania,40.4041821,-80.0301133
1009,2022-10-26,Chicago,Illinois,41.9049509,-87.692221
1010,2022-10-26,Cleveland,Ohio,41.5265511,-81.6009928
1011,2022-10-26,Bangor,Maine,44.8136018,-68.7401022
1012,2022-10-26,Indianapolis,Indiana,39.7669542,-86.1407993
1013,2022-10-26,Trenton,New Jersey,40.2368287,-74.7788623
1014,2022-10-26,Lubbock,Texas,33.4819105,-101.9024951
1015,2022-10-26,Ironton,Ohio,38.5292918,-82.6714446
1016,2022-10-26,Houston,Texas,29.809065,-95.3508918
1017,2022-10-26,Eaton Rapids,Michigan,42.4900074,-84.6499098
1018,2022-10-26,Muskogee,Oklahoma,35.7495856,-95.3805312
1019,2022-10-26,Philadelphia,Pennsylvania,39.9954812,-75.1173228
1020,2022-10-26,Fort Worth (Saginaw),Texas,32.8667023,-97.3890339
1021,2022-10-26,Grand Forks,North Dakota,47.8637389,-97.0326796
1022,2022-10-26,Chula Vista,California,32.6413353,-117.0935216
1023,2022-10-26,Augusta,West Virginia,39.248789,-78.6575121
1024,2022-10-26,Chicago,Illinois,41.7457904,-87.6050199
1025,2022-10-26,Norcross,Georgia,33.9610464,-84.2240732
1026,2022-10-26,Rockingham,North Carolina,34.9782284,-79.7799022
1027,2022-10-26,Chicago,Illinois,41.7546468,-87.6140451
1028,2022-10-26,Summerville,South Carolina,33.0394287,-80.1536301
1029,2022-10-26,Decatur,Georgia,33.7476728,-84.2672489
1030,2022-10-26,Kansas City,Missouri,39.0624602,-94.547523
1031,2022-10-26,Arlington,Texas,32.6652347,-97.207316
1032,2022-10-26,New Orleans,Louisiana,30.0213683,-90.011686
1033,2022-10-26,Boston,Massachusetts,42.3044769,-71.0795781
1034,2022-10-26,New Orleans,Louisiana,30.0192353,-89.9956108
1035,2022-10-26,Clanton,Alabama,32.8435247,-86.5914116
1036,2022-10-26,North Charleston,South Carolina,32.9346326,-80.0518115
1037,2022-10-25,Charlottesville,Virginia,38.0619623,-78.4296276
1038,2022-10-25,Chicago,Illinois,41.8167724,-87.6645595
1039,2022-10-25,Pickton,Texas,33.2074994,-95.845872
1040,2022-10-25,Canton,Ohio,40.8142905,-81.3613693
1041,2022-10-25,Columbia,South Carolina,34.1527827,-80.8952361
1042,2022-10-25,Roxboro,North Carolina,36.4137951,-78.9713897
1043,2022-10-25,New York (Manhattan),New York,40.788086,-73.9449798
1044,2022-10-25,Cleveland,Ohio,41.4741008,-81.6210829
1045,2022-10-25,Pageland,South Carolina,34.7753774,-80.3976229
1046,2022-10-25,Show Low,Arizona,34.3451965,-109.9673465
1047,2022-10-25,North Las Vegas,Nevada,36.1961309,-115.1281952
1048,2022-10-25,Lone Tree,Colorado,39.5465054,-104.8712211
1049,2022-10-25,Dallas,Texas,32.7052454,-96.8364411
1050,2022-10-25,Kansas City,Missouri,39.0231089,-94.5737674
1051,2022-10-25,Chicago,Illinois,41.963758,-87.6468868
1052,2022-10-25,Greenwood,Mississippi,32.5650225,-90.3254772
1053,2022-10-25,Natchez,Mississippi,31.5153219,-91.3843249
1054,2022-10-25,Prairieville,Louisiana,30.3300623,-90.9644499
1055,2022-10-25,Albany,Georgia,31.588616,-84.1650902
1056,2022-10-25,Battle Creek,Michigan,42.3099562,-85.1772476
1057,2022-10-25,Gillsville,Georgia,34.3163983,-83.6704018
1058,2022-10-25,Houston,Texas,30.0304525,-95.4422795
1059,2022-10-25,Atlanta,Georgia,33.789929,-84.3877883
1060,2022-10-25,Edinburg,Texas,26.2584725,-98.2005441
1061,2022-10-25,Decatur,Georgia,33.7354916,-84.2326546
1062,2022-10-25,Hamilton,Ohio,39.3929033,-84.5647826
1063,2022-10-25,Los Angeles,California,34.1874043,-118.4166069
1064,2022-10-25,Houston,Texas,29.9664364,-95.4203423
1065,2022-10-25,Little Rock,Arkansas,34.733734,-92.2966869
1066,2022-10-25,Chicago,Illinois,41.7884651,-87.6635425
1067,2022-10-25,Duquesne,Pennsylvania,40.3647561,-79.8464639
1068,2022-10-25,Houston,Texas,29.6584274,-95.3856733
1069,2022-10-25,Montgomery,Alabama,32.3620702,-86.2815557
1070,2022-10-25,Spring Branch,Texas,29.8028321,-95.4849303
1071,2022-10-25,Lexington,Kentucky,38.054485,-84.4791026
1072,2022-10-25,Pittsburgh,Pennsylvania,40.4765377,-79.9183814
1073,2022-10-25,Wallace,South Carolina,34.7445188,-79.8387685
1074,2022-10-25,Waldorf,Maryland,38.639755,-76.891709
1075,2022-10-25,Indianapolis,Indiana,39.796292,-86.0679382
1076,2022-10-25,Philadelphia,Pennsylvania,39.9905665,-75.1247484
1077,2022-10-25,Greensboro,North Carolina,36.0835076,-79.7733898
1078,2022-10-25,Oregon,Oregon,45.5907552,-122.6969025
1079,2022-10-25,Independence,Missouri,39.0998873,-94.4354377
1080,2022-10-25,Cranford,New Jersey,40.6585442,-74.285945
1081,2022-10-25,Prattville,Alabama,32.4737078,-86.4678737
1082,2022-10-25,Coldspring,Texas,30.6186303,-95.1696556
1083,2022-10-24,Channelview,Texas,29.7742251,-95.1327394
1084,2022-10-24,Somerset,Kentucky,37.0430248,-84.6355883
1085,2022-10-24,Memphis,Tennessee,35.1204264,-90.0419975
1086,2022-10-24,Worcester,Massachusetts,42.3187356,-71.7919259
1087,2022-10-24,Houston,Texas,29.8570993,-95.6424578
1088,2022-10-24,Charleston,South Carolina,32.7891907,-79.953916
1089,2022-10-24,Albuquerque,New Mexico,35.1842437,-106.7415015
1090,2022-10-24,Harrisonburg,Virginia,38.4510171,-78.8648736
1091,2022-10-24,San Antonio,Texas,29.4182294,-98.5106016
1092,2022-10-24,Pittsburgh (Wilkinsburg),Pennsylvania,40.4462821,-79.8768298
1093,2022-10-24,Tallahassee,Florida,30.4029588,-84.2339325
1094,2022-10-24,Grandview,Missouri,38.8674442,-94.5208768
1095,2022-10-24,Tampa,Florida,28.0322424,-82.3691963
1096,2022-10-24,Castro Valley,California,37.7062497,-122.019847
1097,2022-10-24,Peoria,Illinois,40.6870629,-89.609409
1098,2022-10-24,Topeka,Kansas,39.0078798,-95.6752757
1099,2022-10-24,Chicago,Illinois,41.8287562,-87.6145521
1100,2022-10-24,Mesa,Arizona,33.3923544,-111.6877662
1101,2022-10-24,Orlando,Florida,28.4608238,-81.3091885
1102,2022-10-24,Birmingham,Alabama,33.5397748,-86.8956725
1103,2022-10-24,Orlando,Florida,28.608905,-81.4766479
1104,2022-10-24,Gibsonton,Florida,27.8551273,-82.3551439
1105,2022-10-24,Clearville,Pennsylvania,39.919326,-78.3448387
1106,2022-10-24,Muncie,Indiana,40.1786144,-85.4074669
1107,2022-10-24,Jackson,Mississippi,32.2987573,-90.1848103
1108,2022-10-24,Saint Cloud,Minnesota,45.5727978,-94.151313
1109,2022-10-24,Detroit,Michigan,42.3776379,-83.1410487
1110,2022-10-24,Indianapolis,Indiana,39.8224419,-86.157435
1111,2022-10-24,Indianapolis,Indiana,39.8300396,-86.0056494
1112,2022-10-24,Saint Louis,Missouri,38.6046435,-90.2709163
1113,2022-10-24,Palmetto,Florida,27.5389578,-82.5571862
1114,2022-10-24,Austin,Texas,30.2223933,-97.673993
1115,2022-10-24,Chicago,Illinois,41.874621,-87.643506
1116,2022-10-24,Chicago,Illinois,41.8390412,-87.7048707
1117,2022-10-24,Cheyenne,Wyoming,41.1537572,-104.6692126
1118,2022-10-24,Oakland,California,37.7457666,-122.1716256
1119,2022-10-24,Laurel,Mississippi,31.700422,-89.1425022
1120,2022-10-24,Selma,Alabama,32.3752329,-87.0035128
1121,2022-10-24,Greensboro,North Carolina,36.0891629,-79.7604684
1122,2022-10-24,Dallas,North Carolina,35.3020639,-81.1718429
1123,2022-10-24,Bowling Green,Kentucky,36.9923449,-86.4582706
1124,2022-10-23,Louisville,Colorado,39.9762348,-105.1280668
1125,2022-10-23,Senatobia,Mississippi,34.6158035,-89.9638491
1126,2022-10-23,Chicago,Illinois,41.8985973,-87.7532359
1127,2022-10-23,Garland,Texas,32.856306,-96.6482109
1128,2022-10-23,Orangeburg,South Carolina,33.4948697,-80.8784844
1129,2022-10-23,Aurora,Colorado,39.6422963,-104.7983527
1130,2022-10-23,Columbus,Georgia,32.4806472,-84.9052647
1131,2022-10-23,Cleveland,Mississippi,33.7348713,-90.7183727
1132,2022-10-23,Boston,Massachusetts,42.2684219,-71.1010773
1133,2022-10-23,Los Angeles,California,33.9833535,-118.2695718
1134,2022-10-23,Columbia,South Carolina,34.1332559,-80.9469079
1135,2022-10-23,Louisville,Kentucky,38.1666038,-85.5941103
1136,2022-10-23,North Charleston,South Carolina,32.841409,-79.9567449
1137,2022-10-23,New Orleans,Louisiana,30.0285331,-90.0218625
1138,2022-10-23,Charlotte,North Carolina,35.1978607,-80.7238455
1139,2022-10-23,Ohio,Illinois,38.853439,-88.0894229
1140,2022-10-23,Charlottesville,Virginia,38.031394,-78.482683
1141,2022-10-23,Iowa City,Iowa,41.6582899,-91.5284468
1142,2022-10-23,Seminole,Oklahoma,35.3620793,-96.5999666
1143,2022-10-23,Oregon,Wisconsin,42.926587,-89.4054483
1144,2022-10-23,Kansas City,Missouri,39.0670193,-94.5244754
1145,2022-10-23,Sharon,Tennessee,36.2441779,-88.8985529
1146,2022-10-23,Visalia,California,36.308883,-119.3070475
1147,2022-10-23,Nashville,Tennessee,36.1331824,-86.7220678
1148,2022-10-23,Saint Louis,Missouri,38.5564042,-90.2523413
1149,2022-10-23,Concord,California,37.9563246,-122.0435894
1150,2022-10-23,Niles,Michigan,41.8361965,-86.1877913
1151,2022-10-23,Elizabethtown,North Carolina,34.6419109,-78.7194331
1152,2022-10-23,Tarboro (Princeville),North Carolina,35.880908,-77.5209091
1153,2022-10-23,Madisonville,Kentucky,37.3679227,-87.5694327
1154,2022-10-23,Saginaw,Michigan,43.431815,-83.9120195
1155,2022-10-23,Saint Louis,Missouri,38.6536752,-90.2821323
1156,2022-10-23,Denver,Colorado,39.7656095,-104.9392954
1157,2022-10-23,Washington,District of Columbia,38.8728646,-77.0075181
1158,2022-10-23,Denver,Colorado,39.8228769,-104.9851514
1159,2022-10-23,Neosho,Missouri,36.8616259,-94.3533618
1160,2022-10-23,Bloomington,Indiana,39.1801169,-86.5680464
1161,2022-10-23,Detroit,Michigan,42.4062029,-83.1485038
1162,2022-10-23,Orlando,Florida,28.5908274,-81.4572255
1163,2022-10-23,Highland Park,Michigan,42.4174251,-83.1053705
1164,2022-10-23,Chicago,Illinois,41.8152598,-87.7047036
1165,2022-10-23,Detroit,Michigan,42.4330095,-83.1802031
1166,2022-10-23,Charleston,Missouri,36.9197365,-89.360073
1167,2022-10-23,West Memphis,Arkansas,35.1461251,-90.1939383
1168,2022-10-23,Cincinnati,Ohio,39.1556103,-84.3901986
1169,2022-10-23,Jackson,Mississippi,32.3462652,-90.1795418
1170,2022-10-23,Jackson,Mississippi,32.2665576,-90.2053108
1171,2022-10-23,Spokane,Washington,47.6520068,-117.4541618
1172,2022-10-23,Reno,Nevada,39.49587,-119.7978065
1173,2022-10-23,Kingsland,Texas,30.6813535,-98.4656618
1174,2022-10-23,Austin,Texas,30.3525224,-97.7183544
1175,2022-10-23,Carbondale,Illinois,37.7218385,-89.2162796
1176,2022-10-23,Tampa,Florida,27.9602782,-82.4417706
1177,2022-10-23,Coachella,California,33.6709845,-116.1773505
1178,2022-10-23,Pomona,California,34.067658,-117.7920779
1179,2022-10-23,Miami,Florida,25.8387779,-80.1983816
1180,2022-10-23,Chicago,Illinois,41.8056179,-87.616875
1181,2022-10-23,Alexandria,Virginia,38.8149047,-77.106769
1182,2022-10-23,Saint Louis,Missouri,38.7096924,-90.2550979
1183,2022-10-23,Waldorf,Maryland,38.6265124,-76.9105483
1184,2022-10-23,Chicago,Illinois,41.7348666,-87.7361722
1185,2022-10-23,Chicago,Illinois,41.9595566,-87.704713
1186,2022-10-23,Willow Creek,California,40.9452898,-123.6359322
1187,2022-10-23,Saint Louis,Missouri,38.6517849,-90.26007
1188,2022-10-23,Greenwood,Mississippi,33.5134358,-90.1794679
1189,2022-10-23,Mobile,Alabama,30.6854791,-88.068576
1190,2022-10-23,Cincinnati,Ohio,39.1061698,-84.5658554
1191,2022-10-23,Boston,Massachusetts,42.2994383,-71.0644726
1192,2022-10-23,Greenwood,Mississippi,33.5186351,-90.1559999
1193,2022-10-23,Hampton,Virginia,37.0426829,-76.3812629
1194,2022-10-23,Raleigh,North Carolina,35.8611189,-78.5975581
1195,2022-10-23,Conetoe,North Carolina,35.8185807,-77.4634379
1196,2022-10-22,Oxnard,California,34.1485761,-119.1804338
1197,2022-10-22,Chicago,Illinois,41.8894685,-87.7532484
1198,2022-10-22,Browntown,Wisconsin,42.5887879,-89.7868985
1199,2022-10-22,Denver,Colorado,39.6827856,-104.9625116
1200,2022-10-22,Greenville,Mississippi,33.4064812,-91.03183
1201,2022-10-22,Columbus,Georgia,32.4114279,-84.9394873
1202,2022-10-22,Houston,Texas,29.6692359,-95.584966
1203,2022-10-22,Garnett,South Carolina,32.6883815,-81.3189579
1204,2022-10-22,Port Wentworth,Georgia,32.1967612,-81.1923613
1205,2022-10-22,Columbus,Ohio,39.9546538,-82.8667487
1206,2022-10-22,Fort Wayne,Indiana,41.1888234,-85.180254
1207,2022-10-22,Baltimore,Maryland,39.3156857,-76.5938322
1208,2022-10-22,Louisville,Kentucky,38.2476498,-85.7683133
1209,2022-10-22,New York (Manhattan),New York,40.8068777,-73.9367614
1210,2022-10-22,Peoria,Illinois,40.6657846,-89.638937
1211,2022-10-22,Hamilton,Ohio,39.4078876,-84.6149811
1212,2022-10-22,Tyler,Texas,32.3739677,-95.3019571
1213,2022-10-22,Philadelphia,Pennsylvania,40.0002246,-75.1549319
1214,2022-10-22,Tulsa,Oklahoma,36.0951421,-95.9719165
1215,2022-10-22,Rock Island,Illinois,41.5010155,-90.5796334
1216,2022-10-22,San Clemente,New Mexico,33.4524017,-117.6532772
1217,2022-10-22,Denver,Colorado,39.6876111,-105.017424
1218,2022-10-22,Cleveland,Ohio,41.4882728,-81.6149199
1219,2022-10-22,Petersburg,Virginia,37.2387734,-77.3708265
1220,2022-10-22,San Antonio,Texas,29.4234656,-98.522929
1221,2022-10-22,San Antonio,Texas,29.4182294,-98.5106016
1222,2022-10-22,Opelousas,Louisiana,30.5331131,-92.0748488
1223,2022-10-22,Belle Glade,Florida,26.6832525,-80.6740886
1224,2022-10-22,Nicholasville,Kentucky,37.875018,-84.56585
1225,2022-10-22,Mansfield,Ohio,40.7503506,-82.5171306
1226,2022-10-22,Houston,Texas,29.706933,-95.2892821
1227,2022-10-22,Houston,Texas,29.8245348,-95.3419718
1228,2022-10-22,Phoenix,Arizona,33.4658538,-112.0977357
1229,2022-10-22,Chicago,Illinois,41.8665226,-87.6946286
1230,2022-10-22,Houston,Texas,29.7290579,-95.358896
1231,2022-10-22,Peebles,Ohio,38.9147148,-83.5322183
1232,2022-10-22,San Diego,California,32.7095318,-117.0667751
1233,2022-10-22,Dallas,Texas,32.7596673,-96.8253224
1234,2022-10-22,Phoenix,Arizona,33.4659737,-112.1692013
1235,2022-10-22,Phoenix,Arizona,33.4188718,-112.197209
1236,2022-10-22,Austin,Texas,30.3385422,-97.7557533
1237,2022-10-22,Milwaukee,Wisconsin,43.0986985,-87.9607215
1238,2022-10-22,Cincinnati (Lockland),Ohio,39.2271747,-84.4573856
1239,2022-10-22,Akron,Ohio,41.093215,-81.54309
1240,2022-10-22,Vansant,Virginia,37.2283215,-82.1776363
1241,2022-10-22,Philadelphia,Pennsylvania,40.0161281,-75.1307966
1242,2022-10-22,Yakima,Washington,46.6027281,-120.4978172
1243,2022-10-22,Chicago,Illinois,41.7644081,-87.5657674
1244,2022-10-22,Des Moines,Iowa,41.6058921,-93.6317902
1245,2022-10-22,Philadelphia,Pennsylvania,40.0440154,-75.088373
1246,2022-10-22,Denham Springs,Louisiana,30.6718712,-90.8794442
1247,2022-10-22,Chicago,Illinois,41.7428693,-87.6646788
1248,2022-10-22,Loma Linda,California,34.0635531,-117.2327616
1249,2022-10-22,Boston,Massachusetts,42.2860338,-71.0928376
1250,2022-10-22,Bronx,New York,40.8826792,-73.8599544
1251,2022-10-22,Mobile,Alabama,30.5745364,-88.155464
1252,2022-10-22,Birmingham,Alabama,33.5467576,-86.7433661
1253,2022-10-21,Sacramento,California,38.6359341,-121.4344631
1254,2022-10-21,Cleveland,Mississippi,33.7391826,-90.7183263
1255,2022-10-21,Fresno,California,36.8004449,-119.8533846
1256,2022-10-21,New Orleans,Louisiana,29.9784992,-90.0572792
1257,2022-10-21,Columbia,South Carolina,34.0507272,-81.1154152
1258,2022-10-21,Baltimore,Maryland,39.3000936,-76.6401828
1259,2022-10-21,Baltimore,Maryland,39.3520211,-76.6860041
1260,2022-10-21,Hazel Park,Michigan,42.4743795,-83.0931351
1261,2022-10-21,Pueblo,Colorado,38.1570966,-104.7733863
1262,2022-10-21,Philadelphia,Pennsylvania,40.00601,-75.0962874
1263,2022-10-21,Fayetteville,North Carolina,35.0386391,-79.0697085
1264,2022-10-21,Kansas City,Missouri,39.1065907,-94.5728237
1265,2022-10-21,Oklahoma City,Oklahoma,35.4342059,-97.4848918
1266,2022-10-21,Salinas,California,36.6879326,-121.5936937
1267,2022-10-21,Milwaukee,Wisconsin,43.0597112,-87.9001287
1268,2022-10-21,Compton,California,33.9006574,-118.2242029
1269,2022-10-21,Pontiac,Michigan,42.6525779,-83.3029076
1270,2022-10-21,Madison,Wisconsin,43.0161757,-89.5053543
1271,2022-10-21,Houston,Texas,29.6860645,-95.5092554
1272,2022-10-21,Athens,Georgia,33.9370955,-83.3241383
1273,2022-10-21,Houston,Texas,29.9596886,-95.4820655
1274,2022-10-21,Mission (Alton),Texas,26.2726973,-98.3160293
1275,2022-10-21,Humble,Texas,29.9437837,-95.2987955
1276,2022-10-21,Yucca,Arizona,34.8587764,-114.1463239
1277,2022-10-21,Hartland,Wisconsin,43.0968991,-88.3293042
1278,2022-10-21,Morrison,Illinois,41.8121461,-89.963245
1279,2022-10-21,Maitland (Eatonville),Florida,28.6172362,-81.395202
1280,2022-10-21,Austin,Texas,30.3053322,-97.6632462
1281,2022-10-21,Hartford,Connecticut,41.7464242,-72.673327
1282,2022-10-21,Phoenix,Arizona,33.5239753,-112.1342692
1283,2022-10-21,Albuquerque,New Mexico,35.0837919,-106.6477819
1284,2022-10-21,Pittsburgh (Penn Hills),Pennsylvania,40.4729085,-79.8057506
1285,2022-10-21,South Bend,Indiana,41.661239,-86.2444495
1286,2022-10-21,Los Angeles,California,33.9570263,-118.230919
1287,2022-10-21,Los Angeles,California,34.0120718,-118.27403
1288,2022-10-21,Miami,Florida,25.8816236,-80.2266469
1289,2022-10-21,Loveland,Colorado,40.3782252,-104.9888595
1290,2022-10-21,North Little Rock,Arkansas,34.805155,-92.1836565
1291,2022-10-21,Montgomery,Illinois,41.7324939,-88.318907
1292,2022-10-21,Chicago,Illinois,41.7519992,-87.5636058
1293,2022-10-21,Yakima,Washington,46.6144959,-120.5119334
1294,2022-10-21,Lubbock,Texas,33.5996809,-101.8565864
1295,2022-10-21,East Orange,New Jersey,40.7685246,-74.2093802
1296,2022-10-21,Santa Ana,California,33.7266334,-117.8578438
1297,2022-10-21,Mobile,Alabama,30.674914,-88.109077
1298,2022-10-21,Richmond,Virginia,37.5213006,-77.5021758
1299,2022-10-20,Milwaukee,Wisconsin,43.1187275,-88.0299175
1300,2022-10-20,Portland,Oregon,45.4700157,-122.5855241
1301,2022-10-20,Keller,Washington,48.0761985,-118.682226
1302,2022-10-20,Greenville,South Carolina,34.855464,-82.437262
1303,2022-10-20,Aurora,Colorado,39.7148954,-104.7927532
1304,2022-10-20,Richmond,Virginia,37.5435469,-77.417152
1305,2022-10-20,Flint,Michigan,43.001823,-83.666252
1306,2022-10-20,Cherokee,North Carolina,35.4710706,-83.3102188
1307,2022-10-20,Hinesville,Georgia,31.8193228,-81.6110212
1308,2022-10-20,Norfolk,Virginia,36.8646839,-76.2764909
1309,2022-10-20,Thomasville,Georgia,30.8529924,-83.9859853
1310,2022-10-20,Las Vegas,Nevada,36.1814854,-115.0528873
1311,2022-10-20,Summerville,South Carolina,32.9915969,-80.167818
1312,2022-10-20,Orlando (Pine Hills),Florida,28.5879461,-81.4737098
1313,2022-10-20,Milwaukee (Brown Deer),Wisconsin,43.1614908,-87.968529
1314,2022-10-20,Harrisburg,Pennsylvania,40.2496025,-76.8570063
1315,2022-10-20,Huntington Park,California,33.9798692,-118.2042074
1316,2022-10-20,Modesto,California,37.6006459,-121.0119299
1317,2022-10-20,Sacramento,California,38.5659434,-121.4562888
1318,2022-10-20,Bradenton,Florida,27.4938849,-82.5445753
1319,2022-10-20,Tucson,Arizona,32.3228112,-111.2049703
1320,2022-10-20,Santa Maria,California,34.946929,-120.4494286
1321,2022-10-20,Philadelphia,Pennsylvania,39.9701218,-75.181327
1322,2022-10-20,District Heights,Maryland,38.8446493,-76.891665
1323,2022-10-20,Chicago,Illinois,41.669575,-87.551851
1324,2022-10-20,West Chester,Ohio,39.3175502,-84.4462703
1325,2022-10-20,Vancouver,Washington,45.6210901,-122.5548665
1326,2022-10-20,Molino,Florida,30.7202168,-87.3152821
1327,2022-10-20,Little Rock,Arkansas,34.720553,-92.3516363
1328,2022-10-20,Rochester,New York,43.1742916,-77.5769734
1329,2022-10-20,Greenwood,Mississippi,33.5193127,-90.1548782
1330,2022-10-20,Monroe,Louisiana,32.5503324,-92.0183467
1331,2022-10-20,Las Vegas,Nevada,36.1402861,-115.1377317
1332,2022-10-20,Louisville (Shively),Kentucky,38.1995624,-85.7988751
1333,2022-10-19,Columbus,Georgia,32.4630309,-84.9899271
1334,2022-10-19,Easley,South Carolina,34.8441157,-82.5282087
1335,2022-10-19,North Charleston,South Carolina,32.8485757,-79.9805721
1336,2022-10-19,Grain Valley,Missouri,39.0182059,-94.2203426
1337,2022-10-19,Rockdale,Texas,30.6389663,-97.0511027
1338,2022-10-19,Kansas City,Missouri,39.0998745,-94.5809212
1339,2022-10-19,Baltimore,Maryland,39.3465851,-76.6807601
1340,2022-10-19,Baltimore,Maryland,39.3395097,-76.6629516
1341,2022-10-19,Nashville,Tennessee,36.2002497,-86.7487285
1342,2022-10-19,Denver,Colorado,39.7851985,-104.7974928
1343,2022-10-19,Bronx,New York,40.8823475,-73.8630865
1344,2022-10-19,Richmond,Virginia,37.5492093,-77.4064593
1345,2022-10-19,Saginaw,Michigan,43.4259058,-83.9603478
1346,2022-10-19,Lasara,Texas,26.464534,-97.9097501
1347,2022-10-19,Christiana,Tennessee,35.7128468,-86.5100846
1348,2022-10-19,Staten Island,New York,,
1349,2022-10-19,Los Angeles,California,33.9512081,-118.2326498
1350,2022-10-19,Lewiston,Maine,44.0891017,-70.2177731
1351,2022-10-19,Golden Valley,Arizona,35.0616416,-114.1752457
1352,2022-10-19,Fort Lauderdale (Lauderhill),Florida,26.1568495,-80.2293568
1353,2022-10-19,Reno,Nevada,39.542211,-119.8121185
1354,2022-10-19,Detroit,Michigan,42.3646072,-83.2422124
1355,2022-10-19,Hawthorne,California,33.9285578,-118.3177931
1356,2022-10-19,Philadelphia,Pennsylvania,40.0287032,-75.0769404
1357,2022-10-19,Philadelphia,Pennsylvania,39.9621908,-75.2443675
1358,2022-10-19,Bucyrus,Ohio,40.8120187,-82.9781129
1359,2022-10-19,Oxford,Mississippi,34.3395652,-89.4872465
1360,2022-10-19,Tampa,Florida,27.9921035,-82.418308
1361,2022-10-19,Boise,Idaho,43.6120611,-116.2690068
1362,2022-10-19,Seattle,Washington,47.6126083,-122.296387
1363,2022-10-19,Miami,Florida,25.765848,-80.4781571
1364,2022-10-19,Clemmons,North Carolina,36.0256089,-80.3680009
1365,2022-10-19,Andalusia,Alabama,31.321116,-86.4968258
1366,2022-10-19,Atlantic City,New Jersey,39.3618308,-74.42806
1367,2022-10-19,Hope Mills,North Carolina,34.97509,-78.9535808
1368,2022-10-19,Brighton,Colorado,39.9714012,-104.8280424
1369,2022-10-19,Billings,Montana,45.7567241,-108.5305379
1370,2022-10-18,Ocala,Florida,29.1853293,-82.185957
1371,2022-10-18,Hammond,Louisiana,30.475803,-90.5007647
1372,2022-10-18,Jackson,Mississippi,32.268352,-90.2141185
1373,2022-10-18,New Orleans,Louisiana,29.9899249,-90.0600811
1374,2022-10-18,Little Rock,Arkansas,34.7397932,-92.3562814
1375,2022-10-18,Lancaster,Pennsylvania,40.0309099,-76.3005735
1376,2022-10-18,Cleveland,Ohio,41.5158061,-81.6260832
1377,2022-10-18,Hagerstown,Maryland,39.647229,-77.7185042
1378,2022-10-18,Tampa,Florida,27.9747758,-82.4844556
1379,2022-10-18,Cincinnati,Ohio,,
1380,2022-10-18,Detroit,Michigan,42.397228,-82.9880805
1381,2022-10-18,Mandeville,Louisiana,30.3633402,-90.0351506
1382,2022-10-18,Sacramento,California,38.5394551,-121.4591
1383,2022-10-18,Los Angeles,California,34.053021,-118.1843514
1384,2022-10-18,Gallatin Gateway,Montana,45.4619486,-111.2508656
1385,2022-10-18,San Francisco,California,37.7841429,-122.4080938
1386,2022-10-18,Las Vegas,Nevada,36.0909404,-115.0585673
1387,2022-10-18,Las Vegas,Nevada,36.1830951,-115.0168132
1388,2022-10-18,Chicago,Illinois,42.0103963,-87.6930508
1389,2022-10-18,Jacksonville,Florida,30.3389974,-81.6709633
1390,2022-10-18,Shreveport,Louisiana,32.465728,-93.861272
1391,2022-10-18,Portland,Oregon,45.5028895,-122.5122781
1392,2022-10-18,Baltimore,Maryland,39.277459,-76.6382118
1393,2022-10-18,Fayetteville,North Carolina,35.0813612,-78.9003343
1394,2022-10-18,Sparks,Nevada,39.5415043,-119.710123
1395,2022-10-18,Miami,Florida,25.8447181,-80.2243332
1396,2022-10-18,Oklahoma City (Midwest City),Oklahoma,35.4446049,-97.3612569
1397,2022-10-18,San Diego,California,32.6950383,-117.102398
1398,2022-10-18,Stockton,California,37.9347918,-121.279476
1399,2022-10-18,Paragould,Arkansas,36.058683,-90.5483168
1400,2022-10-18,Benton,Arkansas,34.5501668,-92.5463566
1401,2022-10-18,Indianapolis,Indiana,39.779969,-86.250598
1402,2022-10-18,Hartsville,South Carolina,34.4390737,-79.9536247
1403,2022-10-18,Bluffton,South Carolina,32.2604243,-80.8808216
1404,2022-10-18,Winston Salem (Winston-salem),North Carolina,36.0734755,-80.2142014
1405,2022-10-18,Greensboro,North Carolina,36.0850927,-79.7505966
1406,2022-10-18,New Iberia,Louisiana,30.0114302,-91.8386456
1407,2022-10-18,Fayetteville,North Carolina,35.0285349,-79.0373491
1408,2022-10-18,Harvey,Louisiana,29.877644,-90.0561945
1409,2022-10-17,Jeffersonville,Indiana,38.3116837,-85.7079985
1410,2022-10-17,Memphis,Tennessee,35.037327,-90.0056004
1411,2022-10-17,Corona (Queens),New York,40.7449859,-73.8642613
1412,2022-10-17,Altamonte Springs,Florida,28.6624477,-81.3664734
1413,2022-10-17,Colony,Texas,33.0991089,-96.8786034
1414,2022-10-17,Corona (Eastvale),California,33.9697606,-117.5507723
1415,2022-10-17,Fort Worth,Texas,32.7389029,-97.2777411
1416,2022-10-17,Chicago,Illinois,41.9965216,-87.6900934
1417,2022-10-17,Southlake,Texas,32.9525256,-97.1319837
1418,2022-10-17,Hernandez,New Mexico,36.040669,-106.1005043
1419,2022-10-17,Fort Worth,Texas,32.8420274,-97.1945536
1420,2022-10-17,Jacksonville,Florida,30.3696955,-81.6645553
1421,2022-10-17,Chattanooga,Tennessee,35.0120505,-85.2744046
1422,2022-10-17,Baldwin,Michigan,43.9331612,-85.8559856
1423,2022-10-17,Las Vegas,Nevada,36.0956219,-115.1387386
1424,2022-10-17,Henrico,Virginia,37.5091463,-77.3905775
1425,2022-10-17,Augusta,Georgia,33.5120054,-82.0462047
1426,2022-10-17,Cincinnati,Ohio,39.1235269,-84.5813763
1427,2022-10-17,Green Bay,Wisconsin,44.4937473,-87.993435
1428,2022-10-17,Cleveland,Ohio,41.4708661,-81.7001506
1429,2022-10-17,Pottstown,Pennsylvania,40.253961,-75.6511878
1430,2022-10-17,Chicago,Illinois,41.7007111,-87.5634191
1431,2022-10-17,Beech Island,South Carolina,33.4290193,-81.8667588
1432,2022-10-17,San Antonio,Texas,29.4361939,-98.4475982
1433,2022-10-17,Canton,Ohio,40.8320909,-81.3886761
1434,2022-10-17,Las Vegas,Nevada,36.1099106,-115.2272216
1435,2022-10-17,Bartow,Florida,27.8928291,-81.8275382
1436,2022-10-17,Hickory,North Carolina,35.7215935,-81.3305835
1437,2022-10-17,Washington,District of Columbia,38.8418202,-76.9866377
1438,2022-10-17,Woodbridge,Virginia,38.652005,-77.3667395
1439,2022-10-17,Chicago,Illinois,41.7699088,-87.6838226
1440,2022-10-17,Chicago,Illinois,41.782958,-87.5893052
1441,2022-10-17,Kansas City,Missouri,39.0230701,-94.5382694
1442,2022-10-17,Browning,Montana,,
1443,2022-10-17,Stoneville,North Carolina,36.4934373,-79.8186797
1444,2022-10-17,Birmingham,Alabama,33.5379136,-86.72481
1445,2022-10-17,Boston,Massachusetts,42.3036219,-71.0720233
1446,2022-10-17,Winder,Georgia,34.047665,-83.699944
1447,2022-10-16,Marietta,Georgia,33.9125452,-84.5707417
1448,2022-10-16,El Paso,Texas,31.8578598,-106.4323975
1449,2022-10-16,Fairmont,West Virginia,39.4790432,-80.2363152
1450,2022-10-16,Kansas City,Missouri,39.1811499,-94.5767138
1451,2022-10-16,Chicago,Illinois,41.7687953,-87.6469433
1452,2022-10-16,Yuma,Arizona,32.7194113,-114.6599723
1453,2022-10-16,Ridgeland,South Carolina,32.4890239,-80.9541135
1454,2022-10-16,Oklahoma City,Oklahoma,35.4391404,-97.5399774
1455,2022-10-16,North Pole,Alaska,,
1456,2022-10-16,Kansas City,Missouri,39.1805772,-94.493576
1457,2022-10-16,Savannah,Georgia,32.0933774,-81.1245785
1458,2022-10-16,Washington,District of Columbia,38.8549184,-76.9895526
1459,2022-10-16,Flint,Michigan,43.0271784,-83.7239297
1460,2022-10-16,Knoxville,Tennessee,35.913328,-83.9561818
1461,2022-10-16,San Antonio,Texas,29.3777091,-98.5488296
1462,2022-10-16,Gibson,Louisiana,29.6398806,-90.9600401
1463,2022-10-16,Reading,Pennsylvania,40.369255,-75.9264549
1464,2022-10-16,Houston,Texas,29.9698244,-95.4019937
1465,2022-10-16,Cantonment,Florida,30.642328,-87.391296
1466,2022-10-16,Milwaukee,Wisconsin,43.0983565,-87.9928995
1467,2022-10-16,Dublin,Georgia,32.5528843,-82.8351364
1468,2022-10-16,Union Township,Indiana,39.768849,-86.5818582
1469,2022-10-16,Dallas,Texas,32.7802365,-96.6822711
1470,2022-10-16,Charlotte,North Carolina,35.125217,-80.872574
1471,2022-10-16,Anadarko,Oklahoma,35.0664532,-98.2469395
1472,2022-10-16,Detroit,Michigan,42.3705555,-83.2152915
1473,2022-10-16,Elyria,Ohio,41.3605857,-82.1006457
1474,2022-10-16,Toledo,Ohio,41.6564351,-83.5696165
1475,2022-10-16,Indianapolis,Indiana,39.8162234,-86.2701596
1476,2022-10-16,Benson,North Carolina,35.5311552,-78.5621277
1477,2022-10-16,Dover,Delaware,39.1595844,-75.5263796
1478,2022-10-16,Selma,North Carolina,35.5231185,-78.3038483
1479,2022-10-16,Columbus,Ohio,39.9944071,-82.9990764
1480,2022-10-16,Chicago,Illinois,41.9152698,-87.6343802
1481,2022-10-16,Greenville,South Carolina,34.8369492,-82.4012483
1482,2022-10-16,Bellingham,Washington,48.7606988,-122.4463656
1483,2022-10-16,Union,New Jersey,40.6961134,-74.2698799
1484,2022-10-16,Richmond,Virginia,37.5298391,-77.4248399
1485,2022-10-16,Stuttgart,Arkansas,34.4929054,-91.5502757
1486,2022-10-16,Jackson,Mississippi,32.2976472,-90.2374301
1487,2022-10-16,New York (Manhattan),New York,40.8615656,-73.9247386
1488,2022-10-16,Nashville,Tennessee,36.2279365,-86.7963357
1489,2022-10-16,Brooklyn,New York,40.6667397,-73.8923146
1490,2022-10-16,La Vergne,Tennessee,35.9902635,-86.5659662
1491,2022-10-16,Sumter,South Carolina,33.9140362,-80.3793439
1492,2022-10-16,San Diego,California,32.7822715,-117.0794027
1493,2022-10-16,Minneapolis,Minnesota,44.9494345,-93.2961728
1494,2022-10-16,Birmingham,Alabama,33.5070654,-86.8343271
1495,2022-10-15,Chesapeake,Virginia,36.8127879,-76.2485909
1496,2022-10-15,Norfolk,Virginia,36.849859,-76.2689156
1497,2022-10-15,Reno,Nevada,39.6267697,-119.9011575
1498,2022-10-15,Cape Girardeau,Missouri,37.3077261,-89.5219644
1499,2022-10-15,Warner Robins,Georgia,32.6184341,-83.6150318
1500,2022-10-15,Blue Springs,Missouri,39.0295483,-94.2569303
1501,2022-10-15,Saint Louis,Missouri,38.5939955,-90.2311663
1502,2022-10-15,New Orleans,Louisiana,29.959906,-90.007975
1503,2022-10-15,Chicago,Illinois,41.7416363,-87.6380875
1504,2022-10-15,Fort Lauderdale (Davie),Florida,26.1140214,-80.3148039
1505,2022-10-15,Birmingham,Alabama,33.5053461,-86.8291406
1506,2022-10-15,Denver,Colorado,39.8343414,-104.9981473
1507,2022-10-15,Elkhart,Indiana,41.651797,-85.9523897
1508,2022-10-15,Atlanta,Georgia,33.8033003,-84.3999677
1509,2022-10-15,North Charleston,South Carolina,32.9054333,-80.0870591
1510,2022-10-15,Pittsburgh,Pennsylvania,40.451143,-80.000679
1511,2022-10-15,Newark,Maryland,38.2312475,-75.3036576
1512,2022-10-15,Phoenix,Arizona,33.5094481,-112.1169941
1513,2022-10-15,Augusta,Georgia,33.4342937,-82.0033975
1514,2022-10-15,Toledo,Ohio,41.6235184,-83.5864823
1515,2022-10-15,Milwaukee,Wisconsin,43.1387667,-88.0046891
1516,2022-10-15,Baltimore,Maryland,39.2791837,-76.6568382
1517,2022-10-15,Kansas City,Missouri,38.9187035,-94.5089555
1518,2022-10-15,Augusta,Georgia,33.4886614,-82.0024545
1519,2022-10-15,Chicago,Illinois,41.7360463,-87.6247889
1520,2022-10-15,Compton,California,33.9161628,-118.2319967
1521,2022-10-15,Delano,California,35.7633098,-119.2384801
1522,2022-10-15,Jacksonville,Florida,30.2983621,-81.7491353
1523,2022-10-15,Santa Ana,California,33.739693,-117.8449245
1524,2022-10-15,Pomona,California,34.0588488,-117.7645342
1525,2022-10-15,Edinburg,Texas,26.3219323,-98.1897119
1526,2022-10-15,Rock Island,Illinois,41.5079342,-90.5657075
1527,2022-10-15,Fort Worth,Texas,32.709212,-97.2669165
1528,2022-10-15,Baltimore,Maryland,39.286055,-76.6790343
1529,2022-10-15,San Antonio,Texas,29.5560852,-98.6143925
1530,2022-10-15,Hickory (Long View),North Carolina,35.721851,-81.3838535
1531,2022-10-15,Columbia,South Carolina,34.0683526,-80.9577262
1532,2022-10-15,Frederick,Maryland,39.4236405,-77.4612699
1533,2022-10-15,Bennettsville,South Carolina,34.6103049,-79.6859449
1534,2022-10-15,Corona (Queens),New York,40.6679601,-73.7440737
1535,2022-10-15,Detroit,Michigan,42.4238357,-83.1801351
1536,2022-10-15,Elyria,Ohio,41.3571026,-82.1560014
1537,2022-10-15,West Palm Beach,Florida,26.6957353,-80.171073
1538,2022-10-15,Toledo,Ohio,41.682343,-83.591632
1539,2022-10-15,Winston Salem (Winston-salem),North Carolina,36.1288301,-80.2561184
1540,2022-10-15,Indianapolis,Indiana,39.79681,-85.9982224
1541,2022-10-15,Kennewick,Washington,46.2017449,-119.1818269
1542,2022-10-15,Philadelphia,Pennsylvania,40.0045159,-75.1467816
1543,2022-10-15,Chicago,Illinois,41.8552425,-87.7105134
1544,2022-10-15,Rimrock,Arizona,34.6357689,-111.790555
1545,2022-10-15,Chicago,Illinois,41.8036769,-87.6431405
1546,2022-10-15,Chicago,Illinois,41.7371574,-87.5461926
1547,2022-10-15,Skykomish,Washington,47.711844,-121.355144
1548,2022-10-15,Kennewick,Washington,46.2051461,-119.1010359
1549,2022-10-15,Spokane,Washington,47.665826,-117.4079178
1550,2022-10-15,Lenore,Idaho,46.6098791,-116.3708064
1551,2022-10-15,Painter,Virginia,37.5507748,-75.807582
1552,2022-10-15,Blytheville,Arkansas,35.9234758,-89.8919067
1553,2022-10-15,Pecks Mill,West Virginia,37.936974,-81.9901589
1554,2022-10-15,Decatur,Arkansas,36.3324308,-94.4756889
1555,2022-10-15,Dallas,Texas,32.7974209,-96.7527848
1556,2022-10-15,Lakeland,Florida,28.0902803,-81.9548027
1557,2022-10-15,Bronx,New York,40.8221375,-73.8956104
1558,2022-10-15,Gardena,California,33.9159838,-118.3185926
1559,2022-10-15,North Charleston,South Carolina,32.8565092,-80.035161
1560,2022-10-14,Kansas City,Missouri,38.9827627,-94.569475
1561,2022-10-14,Bogalusa,Louisiana,30.7814609,-89.8671185
1562,2022-10-14,Indianapolis,Indiana,39.7696912,-86.0925599
1563,2022-10-14,Bay Minette,Alabama,30.8704156,-87.7679872
1564,2022-10-14,Decatur,Georgia,33.7382574,-84.2707654
1565,2022-10-14,Westminster,Colorado,39.8634367,-105.0598134
1566,2022-10-14,Atlanta,Georgia,33.7583571,-84.4387438
1567,2022-10-14,Saint Clair Shores,Michigan,42.4661945,-82.9068035
1568,2022-10-14,Richmond,Virginia,37.5212811,-77.4918409
1569,2022-10-14,Corona (Queens),New York,40.6060883,-73.7590841
1570,2022-10-14,Chicago,Illinois,42.0076929,-87.7055612
1571,2022-10-14,San Antonio,Texas,29.4415562,-98.50317
1572,2022-10-14,Wichita,Kansas,37.6642484,-97.2939029
1573,2022-10-14,San Antonio,Texas,29.4418897,-98.5038542
1574,2022-10-14,Orlando,Florida,28.554706,-81.4085806
1575,2022-10-14,Prospect Heights,Illinois,42.1070752,-87.8991673
1576,2022-10-14,Houston,Texas,29.6189686,-95.2245877
1577,2022-10-14,Cincinnati,Ohio,39.1418058,-84.5496697
1578,2022-10-14,Saint Petersburg,Florida,27.7241611,-82.6801141
1579,2022-10-14,Indianapolis,Indiana,39.7230383,-86.1320712
1580,2022-10-14,Baltimore,Maryland,39.2528195,-76.6508823
1581,2022-10-14,Desert Hot Springs,California,33.9494084,-116.4747459
1582,2022-10-14,Albany,Georgia,31.5890816,-84.1776243
1583,2022-10-14,Hazlehurst,Georgia,31.875433,-82.600976
1584,2022-10-14,Portland,Oregon,45.5297917,-122.6543714
1585,2022-10-14,New Orleans,Louisiana,29.9767811,-90.0481183
1586,2022-10-14,Newport News,Virginia,37.1351961,-76.5481377
1587,2022-10-14,Milwaukee,Wisconsin,43.0836708,-87.9633382
1588,2022-10-14,Milwaukee,Wisconsin,43.0551299,-87.9563985
1589,2022-10-14,Memphis,Tennessee,35.1395945,-89.9646119
1590,2022-10-14,Tulsa,Oklahoma,36.1652523,-95.9921813
1591,2022-10-13,Gautier,Mississippi,30.3806701,-88.6511713
1592,2022-10-13,Memphis,Tennessee,35.2003096,-89.8264607
1593,2022-10-13,Knoxville,Tennessee,35.9835839,-83.894197
1594,2022-10-13,Gainesville,Georgia,34.2646044,-83.8502378
1595,2022-10-13,Detroit,Michigan,42.350148,-83.2453769
1596,2022-10-13,Brooklyn,New York,40.66846,-73.902855
1597,2022-10-13,Conley,Georgia,33.6467224,-84.3366104
1598,2022-10-13,Louisville (Jeffersontown),Kentucky,38.2013905,-85.5768448
1599,2022-10-13,Americus,Georgia,32.0730839,-84.2353207
1600,2022-10-13,Fayetteville,Tennessee,35.1558874,-86.5741485
1601,2022-10-13,Las Vegas,Nevada,36.1147691,-115.1463739
1602,2022-10-13,Kenosha,Wisconsin,42.5776382,-87.8380611
1603,2022-10-13,Chauncey,Georgia,32.0984548,-83.0586852
1604,2022-10-13,Baltimore,Maryland,39.3103314,-76.6412926
1605,2022-10-13,Madison,Tennessee,36.2681363,-86.6834951
1606,2022-10-13,Chicago,Illinois,41.764872,-87.5721638
1607,2022-10-13,Vernal (Maeser),Utah,40.4625294,-109.6090914
1608,2022-10-13,Washington,District of Columbia,38.8949063,-76.934078
1609,2022-10-13,Windsor,Wisconsin,43.1963389,-89.3447417
1610,2022-10-13,Glendale,Arizona,33.530933,-112.1630151
1611,2022-10-13,Raleigh,North Carolina,35.8106339,-78.5391939
1612,2022-10-13,Buckhead,Georgia,33.82543,-84.4274991
1613,2022-10-13,Topeka,Kansas,38.9848731,-95.6869282
1614,2022-10-13,Baltimore,Maryland,39.3414364,-76.6760235
1615,2022-10-13,Lewiston Woodville,North Carolina,36.1060296,-77.1819065
1616,2022-10-13,Philadelphia,Pennsylvania,39.9833599,-75.1709255
1617,2022-10-13,Miami Beach,Florida,25.7902955,-80.1320774
1618,2022-10-13,Central Point,Oregon,42.4284836,-122.9343887
1619,2022-10-13,Philadelphia,Pennsylvania,40.0816544,-75.1721998
1620,2022-10-13,Chicago,Illinois,41.7383892,-87.6248371
1621,2022-10-13,Chicago,Illinois,41.7652833,-87.626907
1622,2022-10-13,Lake Charles,Louisiana,30.2193183,-93.1952078
1623,2022-10-13,Kansas City,Missouri,38.9799646,-94.5670355
1624,2022-10-13,Labelle,Florida,26.7682985,-81.3914051
1625,2022-10-13,Lake,Mississippi,32.3952644,-89.3580992
1626,2022-10-13,Clayton,Louisiana,31.7184746,-91.5380994
1627,2022-10-13,Branchland,West Virginia,38.210693,-82.169482
1628,2022-10-13,Saint Louis,Missouri,38.5834182,-90.2447072
1629,2022-10-12,Decatur,Illinois,39.8583327,-88.9392372
1630,2022-10-12,Oakland,California,37.804146,-122.2772616
1631,2022-10-12,Baton Rouge,Louisiana,30.3624275,-90.996147
1632,2022-10-12,Grandview,Missouri,38.8757215,-94.5001915
1633,2022-10-12,Dublin,Georgia,32.5685892,-82.9276973
1634,2022-10-12,Indianapolis,Indiana,39.8154519,-86.1015675
1635,2022-10-12,Santa Rosa,California,38.441072,-122.606926
1636,2022-10-12,Macon,Georgia,32.8445511,-83.6092186
1637,2022-10-12,Camp Verde,Arizona,34.5268598,-111.8294008
1638,2022-10-12,Brooklyn,New York,40.676318,-73.9293458
1639,2022-10-12,Anaconda,Montana,46.1272449,-112.9232979
1640,2022-10-12,Jacksonville,Florida,30.380936,-81.6799287
1641,2022-10-12,Columbus,Ohio,39.9376806,-83.0969038
1642,2022-10-12,Sanford,North Carolina,35.4675861,-79.1746256
1643,2022-10-12,Des Moines,Iowa,41.557089,-93.673568
1644,2022-10-12,Denver,Colorado,39.6517948,-105.0619571
1645,2022-10-12,Bristol,Connecticut,41.6576746,-72.9036754
1646,2022-10-12,Baltimore,Maryland,39.3060583,-76.6630503
1647,2022-10-12,Baltimore,Maryland,39.2961077,-76.5731266
1648,2022-10-12,Jackson,Mississippi,32.2881534,-90.2634713
1649,2022-10-12,Sacramento,California,38.5001862,-121.4351879
1650,2022-10-12,Pittsburgh (Penn Hills),Pennsylvania,40.4647594,-79.8528655
1651,2022-10-12,Portland,Oregon,45.4062902,-122.537737
1652,2022-10-12,Greenville,North Carolina,35.5809051,-77.3907811
1653,2022-10-12,Williamston,North Carolina,35.9071121,-77.1276405
1654,2022-10-12,Philadelphia,Pennsylvania,39.9663648,-75.1536609
1655,2022-10-12,Jackson,Mississippi,32.2763688,-90.2572616
1656,2022-10-12,Mount Hope,New York,41.434734,-74.536971
1657,2022-10-12,Loon Lake,Washington,48.051629,-117.6140045
1658,2022-10-12,New Orleans,Louisiana,29.9400117,-90.0251965
1659,2022-10-12,Little Rock,Arkansas,34.740463,-92.3235296
1660,2022-10-12,Springfield,Massachusetts,42.1059723,-72.5969239
1661,2022-10-12,Milwaukee,Wisconsin,43.1126176,-88.0551854
1662,2022-10-12,Milwaukee,Wisconsin,43.0111867,-87.9454087
1663,2022-10-12,Redfox,Kentucky,37.209474,-82.9497987
1664,2022-10-12,Milwaukee,Wisconsin,43.1370094,-88.036541
1665,2022-10-12,Inwood,West Virginia,39.3703293,-78.030785
1666,2022-10-12,Detroit,Michigan,42.3547407,-83.0968414
1667,2022-10-12,Billings (Lockwood),Montana,45.7979286,-108.4324722
1668,2022-10-11,Greenville,Mississippi,33.399661,-91.0377029
1669,2022-10-11,Brooklyn,New York,40.6212799,-73.9264523
1670,2022-10-11,Saucier,Mississippi,30.5997676,-89.1691176
1671,2022-10-11,Erwin,North Carolina,35.3337457,-78.6761127
1672,2022-10-11,Chicago,Illinois,41.752592,-87.570192
1673,2022-10-11,High Point (Archdale),North Carolina,35.9085231,-79.939568
1674,2022-10-11,Jacksonville,Florida,30.3420885,-81.7184163
1675,2022-10-11,Cincinnati,Ohio,39.1646371,-84.471511
1676,2022-10-11,North Highlands,California,38.6610383,-121.3577821
1677,2022-10-11,Rocky Mount,North Carolina,35.9262166,-77.8145031
1678,2022-10-11,Portsmouth,Virginia,36.8156076,-76.3413507
1679,2022-10-11,Saint Louis (Ferguson),Missouri,38.7550291,-90.2924452
1680,2022-10-11,Vernon,Texas,34.1527008,-99.2866901
1681,2022-10-11,Wilmington,California,33.7758567,-118.2582096
1682,2022-10-11,Chicago,Illinois,41.6529378,-87.6187854
1683,2022-10-11,Chicago,Illinois,41.751609,-87.5759791
1684,2022-10-11,Saint Paul,Minnesota,44.9584392,-93.131433
1685,2022-10-11,Philadelphia,Pennsylvania,40.0707413,-75.1637269
1686,2022-10-11,Savannah (Garden City),Georgia,32.097046,-81.1462094
1687,2022-10-11,Victoria,Texas,28.814355,-96.9951163
1688,2022-10-11,Mountain View,Hawaii,19.5315424,-155.0881436
1689,2022-10-11,Denver,Colorado,39.6504467,-105.0591891
1690,2022-10-11,Salt Lake City,Utah,40.7387414,-111.8887411
1691,2022-10-11,Miami,Florida,25.8088349,-80.1993606
1692,2022-10-11,Vernon,Texas,34.1537686,-99.262489
1693,2022-10-11,Houston,Texas,29.7287042,-95.4857733
1694,2022-10-11,Houston,Texas,29.6125602,-95.222773
1695,2022-10-11,Seaford,Delaware,38.6359767,-75.7019479
1696,2022-10-11,Portland,Oregon,45.5410625,-122.5783433
1697,2022-10-11,Philadelphia,Pennsylvania,40.0707413,-75.1637269
1698,2022-10-11,Washington,District of Columbia,38.9044956,-76.9735377
1699,2022-10-11,Bloomington,Indiana,39.1876536,-86.5726617
1700,2022-10-11,Conley,Georgia,33.6440971,-84.3152013
1701,2022-10-11,Donaldsonville,Louisiana,30.1028145,-90.9879532
1702,2022-10-11,Pueblo,Colorado,38.278715,-104.646234
1703,2022-10-11,Cherry Hill,New Jersey,39.9263139,-75.0033031
1704,2022-10-11,Birmingham,Alabama,33.59229,-86.7336689
1705,2022-10-11,Gulfport,Mississippi,30.5153373,-89.1714647
1706,2022-10-11,Shreveport,Louisiana,32.5091048,-93.7426075
1707,2022-10-11,Shreveport,Louisiana,32.4624584,-93.8069858
1708,2022-10-11,Lumberton,North Carolina,34.5151362,-78.9708932
1709,2022-10-11,Shreveport,Louisiana,32.514538,-93.7695584
1710,2022-10-11,Grand Rapids,Michigan,42.8837458,-85.6457029
1711,2022-10-11,Philadelphia,Pennsylvania,39.9866518,-75.2272805
1712,2022-10-10,El Centro,California,32.7725683,-115.5534441
1713,2022-10-10,Oklahoma City,Oklahoma,35.4332972,-97.485137
1714,2022-10-10,Delano,California,35.7904095,-119.2681274
1715,2022-10-10,Brooklyn,New York,40.6703413,-73.8633593
1716,2022-10-10,Mims,Florida,28.6701481,-80.8414565
1717,2022-10-10,Maricopa,Arizona,33.0825608,-112.0133396
1718,2022-10-10,Finleyville,Pennsylvania,40.2506887,-80.0030521
1719,2022-10-10,Columbus,Ohio,39.9367107,-83.0963798
1720,2022-10-10,Lancaster,California,34.6738915,-118.1607698
1721,2022-10-10,Trinity,Alabama,34.6037068,-87.0965293
1722,2022-10-10,Bryant,Arkansas,34.6138728,-92.5110323
1723,2022-10-10,Saint Louis,Missouri,38.5939458,-90.2720074
1724,2022-10-10,Checotah,Oklahoma,35.4574923,-95.5265119
1725,2022-10-10,Phoenix,Arizona,33.4661751,-112.1166374
1726,2022-10-10,Franklin,North Carolina,35.2137865,-83.3570802
1727,2022-10-10,Omaha,Nebraska,41.284506,-95.971591
1728,2022-10-10,Detroit,Michigan,42.3860259,-82.9872211
1729,2022-10-10,Columbus,Ohio,39.9677445,-82.9555749
1730,2022-10-10,Boston,Massachusetts,42.3173543,-71.0964124
1731,2022-10-10,Baltimore,Maryland,39.3039319,-76.5810274
1732,2022-10-10,Harmony,Wisconsin,42.74463,-88.9613628
1733,2022-10-10,Detroit,Michigan,42.4245573,-83.2773719
1734,2022-10-10,Augusta,Georgia,33.4189619,-82.0216619
1735,2022-10-10,North Las Vegas,Nevada,36.2032569,-115.1604067
1736,2022-10-10,Milwaukee,Wisconsin,43.1145016,-87.9591139
1737,2022-10-10,Saint Paul,Minnesota,44.96815,-93.0963326
1738,2022-10-10,Colorado Springs,Colorado,38.8517532,-104.8491558
1739,2022-10-10,Vero Beach,Florida,27.6163873,-80.4138838
1740,2022-10-10,Fort Worth,Texas,32.8300561,-97.4049017
1741,2022-10-10,Paterson,New Jersey,40.9180877,-74.1663469
1742,2022-10-10,Philadelphia,Pennsylvania,39.9479633,-75.2194069
1743,2022-10-10,Clarksville,Indiana,38.3317964,-85.759455
1744,2022-10-10,Philadelphia,Pennsylvania,40.0526029,-75.1458913
1745,2022-10-10,Jonesboro,Georgia,33.5192548,-84.3661368
1746,2022-10-10,Baton Rouge,Louisiana,30.4366809,-91.1733618
1747,2022-10-10,Trenton,New Jersey,40.2404048,-74.7505658
1748,2022-10-10,Durant,Mississippi,,
1749,2022-10-10,Jackson,Mississippi,32.2839641,-90.2540464
1750,2022-10-10,Knoxville,Tennessee,35.9764501,-83.8602854
1751,2022-10-10,Houston,Texas,29.7380304,-95.5187147
1752,2022-10-10,Columbus,Georgia,32.4859639,-84.9568866
1753,2022-10-09,Salinas,California,36.667463,-121.6788804
1754,2022-10-09,Inman,South Carolina,35.0189622,-82.0743983
1755,2022-10-09,Greenwood,South Carolina,34.1883947,-82.1466559
1756,2022-10-09,Boca Raton,Florida,26.3954985,-80.1926386
1757,2022-10-09,Decatur,Georgia,33.696999,-84.2672939
1758,2022-10-09,Hammond,Louisiana,30.5159383,-90.4415784
1759,2022-10-09,Stockton,California,37.9457307,-121.2769782
1760,2022-10-09,Church Road,Virginia,37.1855188,-77.6230737
1761,2022-10-09,Miami,Florida,25.7917855,-80.2076211
1762,2022-10-09,Miami,Florida,25.9131598,-80.188945
1763,2022-10-09,Coolidge,Arizona,32.9877353,-111.5445458
1764,2022-10-09,Anderson,Indiana,40.0943885,-85.7084832
1765,2022-10-09,Angola,Indiana,41.6374299,-85.0005047
1766,2022-10-09,San Antonio,Texas,29.3999325,-98.4086351
1767,2022-10-09,Odessa,Texas,31.9519784,-102.3818615
1768,2022-10-09,Jacksonville,Arkansas,34.8698705,-92.1293159
1769,2022-10-09,Columbia,South Carolina,34.12667,-80.9031661
1770,2022-10-09,Richmond,Virginia,37.5435469,-77.417152
1771,2022-10-09,Wilmington,North Carolina,34.1906367,-77.9403066
1772,2022-10-09,Greensboro,North Carolina,36.059653,-79.7678682
1773,2022-10-09,Cleveland (Garfield Heights),Ohio,41.437357,-81.587946
1774,2022-10-09,Fairwood,Maryland,38.95345,-76.7718613
1775,2022-10-09,Killeen,Texas,31.1120001,-97.7337271
1776,2022-10-09,Detroit,Michigan,42.3755864,-83.1682224
1777,2022-10-09,Tampa,Florida,27.951691,-82.4599168
1778,2022-10-09,Birmingham (Midfield),Alabama,33.4571287,-86.9442386
1779,2022-10-09,Philadelphia,Pennsylvania,40.032747,-75.1488915
1780,2022-10-09,Citrus Heights,California,38.680661,-121.2984888
1781,2022-10-09,Fall River,Massachusetts,41.697807,-71.158114
